stop_id,stop_code,stop_name,stop_desc,stop_lat,stop_lon,zone_id,stop_url,location_type,parent_station,stop_timezone,wheelchair_boarding
3,3,D @ Alexander (N),,36.193992,-115.147338,,,,,,0
6,6,D @ Frederick (S),,36.192131,-115.147489,,,,,,0
9,9,D @ Kasper (S),,36.194894,-115.147512,,,,,,0
10,10,D @ Madison (N),,36.184298,-115.146999,,,,,,0
11,11,D @ Monroe (S),,36.184607,-115.147156,,,,,,0
12,12,D @ Owens (N),,36.188311,-115.147154,,,,,,0
13,13,D @ Owens (S),,36.188244,-115.147288,,,,,,0
14,14,D @ Paul (N),,36.190482,-115.147273,,,,,,0
16,16,D @ Jefferson (N),,36.182591,-115.146925,,,,,,0
17,17,H @ Bonanza (N),,36.17789,-115.151745,,,,,,0
18,18,H @ Byrnes (N),,36.192243,-115.151742,,,,,,0
19,19,H @ Doolittle (S),,36.191834,-115.151929,,,,,,0
21,21,H @ Lake Mead (S),,36.195388,-115.152018,,,,,,0
23,23,H @ McWilliams (S),,36.17889,-115.152018,,,,,,0
24,24,H @ Monroe (S),,36.185191,-115.151982,,,,,,0
25,25,H @ Monroe (N),,36.185468,-115.151788,,,,,,0
28,28,H @ Harrison (N),,36.187723,-115.151839,,,,,,0
29,29,H @ Owens (S),,36.187959,-115.152057,,,,,,0
30,30,H @ Washington (N),,36.181027,-115.151748,,,,,,0
31,31,H @ Washington (S),,36.180382,-115.151941,,,,,,0
34,34,4th @ Fremont (N),,36.169247,-115.141989,,,,,,0
35,35,4th @ Bonneville (N),,36.164434,-115.145195,,,,,,0
36,36,4th @ Lewis (N),,36.166877,-115.143559,,,,,,0
39,39,Adams @ Buchanan (E),,35.96831,-114.843729,,,,,,0
40,40,Adams @ Avenue B (E),,35.968609,-114.836638,,,,,,0
41,41,Adams @ Georgia (E),,35.968919,-114.8308,,,,,,0
42,42,Adams @ San Felipe (E),,35.96913,-114.82686,,,,,,0
50,50,Alta @ Altamira (W),,36.166601,-115.25647,,,,,,0
52,52,Alta @ Antelope (W),,36.166598,-115.25174,,,,,,0
55,55,Alta @ Brush (E),,36.165968,-115.209335,,,,,,0
56,56,Alta @ Campbell (W),,36.166329,-115.182689,,,,,,0
57,57,Alta @ Campbell (E),,36.166218,-115.183624,,,,,,0
61,61,Alta @ Cimarron (W),,36.166509,-115.270496,,,,,,0
63,63,Alta @ Decatur (W),,36.166616,-115.206759,,,,,,0
67,67,Alta @ Falcon (W),,36.166091,-115.216066,,,,,,0
68,68,Bonneville @ Grand Central (E),,36.16665,-115.154545,,,,,,0
69,69,Bonneville @ Grand Central (W),,36.16665,-115.156544,,,,,,0
70,70,Alta @ Hussey (W),,36.166477,-115.229099,,,,,,0
71,71,Alta @ Brush (W),,36.166106,-115.20913,,,,,,0
72,72,Alta @ Jones (E),,36.166295,-115.223137,,,,,,0
73,73,Alta @ Jones (W),,36.16647,-115.224587,,,,,,0
76,76,Alta @ Lindy (E),,36.166338,-115.236674,,,,,,0
78,78,Bonneville @ Martin L King (E),,36.166154,-115.160139,,,,,,0
81,81,Alta @ Rainbow (E),,36.166363,-115.243415,,,,,,0
82,82,Alta @ Rainbow (W),,36.166568,-115.245119,,,,,,0
83,83,Alta @ Rancho (E),,36.166077,-115.171846,,,,,,0
84,84,Alta @ Rancho (W),,36.166216,-115.174276,,,,,,0
85,85,Alta @ Roland Wiley (W),,36.16651,-115.27388,,,,,,0
86,86,Alta @ Buffalo (W),,36.16664,-115.262007,,,,,,0
92,92,Alta @ Slayton (E),,36.166304,-115.226689,,,,,,0
95,95,Alta @ Torrey Pines (E),,36.166328,-115.232454,,,,,,0
96,96,Alta @ Torrey Pines (W),,36.166518,-115.233697,,,,,,0
97,97,Alta @ Upland (E),,36.165939,-115.216989,,,,,,0
98,98,Alta @ Valley View (E),,36.166155,-115.191447,,,,,,0
100,100,Alta @ Vassar (W),,36.166538,-115.239958,,,,,,0
101,101,Alta @ Lorenzi (E),,36.166354,-115.240177,,,,,,0
102,102,Alta @ Villa Monterrey (W),,36.166609,-115.265077,,,,,,0
114,114,Arizona @ California (W),,35.978319,-114.83457,,,,,,0
126,126,Arville @ Flamingo (N),,36.116067,-115.199293,,,,,,0
127,127,Arville @ Flamingo (S),,36.115009,-115.199508,,,,,,0
128,128,Arville @ Harmon (N),,36.109208,-115.199224,,,,,,0
129,129,Arville @ Harmon (S),,36.10755,-115.199447,,,,,,0
131,131,Arville @ Flamingo (S),,36.11174,-115.199465,,,,,,0
132,132,Arville @ Nevso (N),,36.112995,-115.19927,,,,,,0
133,133,Arville @ Tompkins (S),,36.10419,-115.199371,,,,,,0
135,135,Arville @ Twain (S),,36.121836,-115.199377,,,,,,0
136,136,Arville @ Twain (S),,36.119361,-115.199432,,,,,,0
137,137,Arville @ Viking (N),,36.119552,-115.19922,,,,,,0
158,158,Bonanza @ D (W),,36.177362,-115.147628,,,,,,0
159,159,Bonanza @ City Parkway (E),,36.177172,-115.148499,,,,,,0
160,160,Bonanza @ H (E),,36.177083,-115.152244,,,,,,0
161,161,Bonanza @ H (W),,36.177244,-115.153016,,,,,,0
162,162,Bonanza @ Martin L King (E),,36.177052,-115.156164,,,,,,0
163,163,Bonanza @ H (W),,36.177222,-115.155555,,,,,,0
165,165,Bonanza @ 23rd (E),,36.173859,-115.118217,,,,,,0
166,166,Bonanza @ 9th (E),,36.17396,-115.13312,,,,,,0
167,167,Bonanza @ Las Vegas (W),,36.174455,-115.135858,,,,,,0
168,168,Bonanza @ Lillian (W),,36.17404,-115.066877,,,,,,0
171,171,Bonanza @ Bruce (E),,36.173871,-115.124363,,,,,,0
172,172,Bonanza @ Bruce (W),,36.174137,-115.125617,,,,,,0
174,174,Bonanza @ Clarkway (E),,36.177078,-115.166571,,,,,,0
177,177,Bonanza @ Christy (W),,36.174233,-115.052221,,,,,,0
178,178,Bonanza @ Dike (W),,36.177259,-115.17324,,,,,,0
179,179,Bonanza @ Eastern (E),,36.173797,-115.115238,,,,,,0
180,180,Bonanza @ Eastern (W),,36.17413,-115.116707,,,,,,0
184,184,Bonanza @ Honolulu (E),,36.173376,-115.092321,,,,,,0
185,185,Bonanza @ Pecos (W),,36.173594,-115.092964,,,,,,0
188,188,Bonanza @ Las Vegas (E),,36.174508,-115.136395,,,,,,0
190,190,Bonanza @ Lamb (E),,36.17339,-115.079524,,,,,,0
191,191,Bonanza @ Lamb (W),,36.17361,-115.081208,,,,,,0
192,192,Bonanza @ Lillian (E),E BONANZA RD & LILLIAN ST,36.173856,-115.064826,,,,,,0
194,194,Bonanza @ Linn (W),,36.17437,-115.049299,,,,,,0
195,195,Bonanza @ Martin L King (E),,36.177024,-115.159496,,,,,,0
196,196,Bonanza @ Sunny (W),,36.177204,-115.162145,,,,,,0
199,199,Bonanza @ Main (W),,36.177396,-115.143351,,,,,,0
200,200,Bonanza @ Marion (E),,36.173675,-115.070672,,,,,,0
201,201,Bonanza @ Maryland (E),,36.173946,-115.130079,,,,,,0
202,202,Bonanza @ Maryland (W),,36.174125,-115.131052,,,,,,0
203,203,Bonanza @ McKnight (W),,36.173923,-115.112698,,,,,,0
205,205,Bonanza @ Sloan (W),,36.17448,-115.045629,,,,,,0
206,206,Bonanza @ Mojave (E),,36.173534,-115.105145,,,,,,0
207,207,Bonanza @ Mojave (W),,36.17382,-115.106448,,,,,,0
210,210,Bonanza @ Nellis (W),,36.174106,-115.064065,,,,,,0
211,211,Bonanza @ Page (E),,36.173532,-115.075256,,,,,,0
212,212,Bonanza @ Pecos (E),,36.173379,-115.097127,,,,,,0
213,213,Bonanza @ Pecos (W),,36.173669,-115.09918,,,,,,0
214,214,Bonanza @ Marion (W),,36.173901,-115.070492,,,,,,0
215,215,Bonanza @ Rancho (E),,36.177082,-115.173879,,,,,,0
217,217,Bonanza @ Reef (W),,36.17363,-115.095858,,,,,,0
219,219,Bonanza @ Sandhill (E),,36.173357,-115.088638,,,,,,0
220,220,Bonanza @ 28th (E),,36.173652,-115.111057,,,,,,0
225,225,Bonanza @ Tonopah (E),,36.177082,-115.169368,,,,,,0
226,226,Bonanza @ Tonopah (W),,36.177229,-115.170583,,,,,,0
227,227,Bonanza @ Triest (E),,36.173373,-115.085689,,,,,,0
228,228,Bonanza @ Triest (W),,36.17359,-115.087209,,,,,,0
229,229,Bonanza @ Casino Center (E),,36.175984,-115.139848,,,,,,0
230,230,Bonanza @ Wardelle (W),,36.173862,-115.109998,,,,,,0
236,236,Boulder @ Sahara (S),,36.140569,-115.096002,,,,,,0
242,242,Railroad Pass @ Railroad Pass (S),,35.972099,-114.911989,,,,,,0
246,246,Boulder @ Basic (S),,36.032539,-114.974487,,,,,,0
247,247,Boulder @ Lamb (N),,36.132586,-115.086309,,,,,,0
248,248,Boulder @ Pueblo (N),,36.021832,-114.961749,,,,,,0
249,249,Boulder @ College (S),,36.020521,-114.960953,,,,,,0
250,250,Boulder @ Corn (N),,36.060508,-115.005223,,,,,,0
251,251,Boulder @ Corn (S),,36.059372,-115.004641,,,,,,0
252,252,Boulder @ Dalhart (N),,36.140224,-115.094936,,,,,,0
253,253,Boulder @ Desert Horizons (N),,36.088976,-115.037225,,,,,,0
254,254,Boulder @ Kentucky (S),,36.088729,-115.037659,,,,,,0
259,259,Boulder @ Flamingo (S),,36.11576,-115.068069,,,,,,0
260,260,Boulder @ Flamingo (N),,36.115577,-115.067173,,,,,,0
262,262,Boulder @ Coogan (S),,36.061738,-115.007293,,,,,,0
267,267,Boulder @ Greenway (S),,36.023658,-114.964467,,,,,,0
268,268,Boulder @ Hamilton (N),,36.092346,-115.040987,,,,,,0
270,270,Boulder @ Harmon (S),,36.107583,-115.058858,,,,,,0
272,272,Boulder @ Indios (N),,36.121852,-115.074242,,,,,,0
273,273,Boulder @ Indios (S),,36.120758,-115.073699,,,,,,0
275,275,Boulder @ King (N),,36.055367,-114.999437,,,,,,0
276,276,Boulder @ Lake Mead (N),,36.040496,-114.982682,,,,,,0
278,278,Boulder @ Lamb (N),,36.130638,-115.084147,,,,,,0
281,281,Boulder @ Magic (S),,36.003959,-114.942389,,,,,,0
282,282,Boulder @ Magic (N),,36.005415,-114.94331,,,,,,0
283,283,Boulder @ Major (N),,36.03082,-114.971862,,,,,,0
286,286,Boulder @ Merlayne (N),,36.064031,-115.009186,,,,,,0
287,287,Boulder @ Missouri (N),,36.097349,-115.046616,,,,,,0
292,292,Boulder @ Nellis (S),,36.112263,-115.064129,,,,,,0
293,293,Boulder @ Nellis (N),,36.112271,-115.063453,,,,,,0
295,295,Boulder @ Warm Springs (N),,36.051838,-114.995476,,,,,,0
296,296,Boulder @ Warm Springs (S),,36.051466,-114.995796,,,,,,0
297,297,Boulder @ Palo Verde (N),,36.025463,-114.965796,,,,,,0
298,298,Boulder @ Roberts (N),,36.002858,-114.940399,,,,,,0
299,299,Boulder @ Roberts (S),,36.002089,-114.94025,,,,,,0
300,300,Boulder @ Rolly (N),,36.057526,-115.001875,,,,,,0
301,301,Boulder @ Rolly (S),,36.056645,-115.00158,,,,,,0
303,303,Boulder @ Russell (S),,36.08393,-115.032256,,,,,,0
307,307,Boulder @ Snap (S),,36.055052,-114.999785,,,,,,0
308,308,Boulder @ Harmon (N),,36.107064,-115.057589,,,,,,0
314,314,Boulder @ Tropicana (N),,36.101344,-115.051156,,,,,,0
318,318,Boulder @ Water (N),,36.046184,-114.989121,,,,,,0
319,319,Boulder @ Water (S),,36.044809,-114.988274,,,,,,0
332,332,Bruce @ Gragson (S),,36.182897,-115.125227,,,,,,0
335,335,Bruce @ Searles (S),,36.18453,-115.12522,,,,,,0
337,337,Bruce @ Todd (N),,36.18287,-115.124977,,,,,,0
338,338,Bruce @ Washington (S),,36.180768,-115.12524,,,,,,0
339,339,Buchanan @ Nevada (S),,35.97356,-114.845788,,,,,,0
340,340,Buchanan @ Pinata (S),,35.9702,-114.845398,,,,,,0
342,342,Buffalo @ Carmen (S),,36.185429,-115.260158,,,,,,0
348,348,Burkholder @ Cabrillo (E),,36.037425,-114.96559,,,,,,0
370,370,Carey @ Bruce (E),,36.202995,-115.124541,,,,,,0
371,371,Carey @ Bruce (W),,36.203209,-115.125761,,,,,,0
372,372,Carey @ Civic Center (E),,36.203004,-115.119523,,,,,,0
373,373,Carey @ Civic Center (W),,36.203219,-115.121828,,,,,,0
375,375,Carey @ Clayton (W),,36.203056,-115.170393,,,,,,0
376,376,Carey @ Commerce (E),,36.202959,-115.14179,,,,,,0
377,377,Carey @ Commerce (W),,36.203198,-115.14356,,,,,,0
381,381,Carey @ Donna (E),,36.202984,-115.128934,,,,,,0
382,382,Carey @ Donna (W),,36.203203,-115.130404,,,,,,0
384,384,Carey @ Englestad (W),,36.203197,-115.147563,,,,,,0
397,397,Carey @ Losee (W),,36.203238,-115.139359,,,,,,0
398,398,Carey @ Losee (E),,36.202985,-115.138842,,,,,,0
399,399,Carey @ Martin L King (E),,36.202919,-115.160057,,,,,,0
400,400,Carey @ Martin L King (W),,36.203117,-115.161702,,,,,,0
402,402,Carey @ North (W),,36.203198,-115.15706,,,,,,0
403,403,Carey @ North (E),,36.202962,-115.156762,,,,,,0
408,408,Carey @ Revere (W),,36.203258,-115.153388,,,,,,0
411,411,Carey @ Sierra Sunrise (E),,36.202429,-115.01926,,,,,,0
418,418,Carey @ West (W),,36.203085,-115.165842,,,,,,0
440,440,Center @ Dogwood (S),,36.046223,-114.967325,,,,,,0
441,441,Center @ Ivy (S),,36.042767,-114.967334,,,,,,0
442,442,Center @ Maple (S),,36.039908,-114.96739,,,,,,0
443,443,Warm Springs @ Center (W),,36.050308,-114.966306,,,,,,0
445,445,Charleston @ 10th (E),,36.158745,-115.140084,,,,,,0
446,446,Charleston @ Gass (W),,36.158938,-115.141786,,,,,,0
447,447,Charleston @ 15th (E),,36.158771,-115.132255,,,,,,0
448,448,Charleston @ 15th (W),,36.158995,-115.133356,,,,,,0
449,449,Charleston @ 17th (E),,36.158761,-115.12928,,,,,,0
450,450,Charleston @ 17th (W),,36.158981,-115.129482,,,,,,0
451,451,Charleston @ 28th (E),,36.158699,-115.110957,,,,,,0
452,452,Charleston @ 28th (W),,36.158946,-115.112364,,,,,,0
453,453,Charleston @ Antelope (E),,36.158978,-115.249912,,,,,,0
455,455,Charleston @ Arden (E),,36.158867,-115.073841,,,,,,0
456,456,Charleston @ Arville (W),,36.159159,-115.200271,,,,,,0
457,457,Charleston @ Betty (W),,36.159296,-115.058354,,,,,,0
458,458,Charleston @ Broadalbin (E),,36.158815,-115.082766,,,,,,0
459,459,Charleston @ Bruce (E),,36.158752,-115.124453,,,,,,0
460,460,Charleston @ Bruce (W),,36.158978,-115.125824,,,,,,0
461,461,Charleston @ Brush (W),,36.159224,-115.210909,,,,,,0
462,462,Charleston @ Brush (E),,36.158962,-115.209626,,,,,,0
463,463,Charleston @ Buffalo (E),,36.158991,-115.261609,,,,,,0
464,464,Charleston @ Cahlan (E),,36.158821,-115.178365,,,,,,0
465,465,Charleston @ Campbell (E),,36.158846,-115.182829,,,,,,0
466,466,Charleston @ Campbell (W),,36.159067,-115.18398,,,,,,0
467,467,Charleston @ Cashman (E),,36.158864,-115.185964,,,,,,0
468,468,Charleston @ Cashman (W),,36.159086,-115.187451,,,,,,0
470,470,Charleston @ Christy (W),,36.159459,-115.054281,,,,,,0
472,472,Charleston @ Crestwood (E),,36.158743,-115.120525,,,,,,0
473,473,Charleston @ Decatur (E),,36.158943,-115.20473,,,,,,0
474,474,Charleston @ Decatur (W),,36.159218,-115.206551,,,,,,0
477,477,Charleston @ Durango (E),,36.158958,-115.279466,,,,,,0
478,478,Charleston @ Durango (W),,36.159175,-115.280807,,,,,,0
479,479,Charleston @ Eastern (W),,36.158962,-115.119857,,,,,,0
480,480,Charleston @ Faircenter (E),,36.158945,-115.200781,,,,,,0
482,482,Charleston @ Frank (E),,36.15886,-115.067983,,,,,,0
483,483,Charleston @ Fremont (E),,36.15874,-115.115516,,,,,,0
484,484,Charleston @ Hinson (E),,36.158911,-115.194804,,,,,,0
485,485,Charleston @ Hinson (W),,36.15914,-115.196039,,,,,,0
486,486,Charleston @ Honolulu (W),,36.158963,-115.094151,,,,,,0
487,487,Charleston @ Jones (E),,36.159051,-115.222962,,,,,,0
488,488,Charleston @ Jones (W),,36.159309,-115.224926,,,,,,0
489,489,Charleston @ Las Vegas (E),,36.158734,-115.147005,,,,,,0
490,490,Charleston @ Las Vegas (W),,36.158957,-115.148204,,,,,,0
491,491,Charleston @ Lamb (E),,36.158848,-115.079742,,,,,,0
492,492,Charleston @ Lamb (W),,36.159063,-115.081447,,,,,,0
495,495,Charleston @ Marion (W),,36.159085,-115.073181,,,,,,0
496,496,Charleston @ Marion (W),,36.159101,-115.07665,,,,,,0
497,497,Charleston @ Maryland (E),,36.158763,-115.136234,,,,,,0
498,498,Charleston @ Maryland (W),,36.159004,-115.13779,,,,,,0
499,499,Charleston @ Mohawk (E),,36.159037,-115.214512,,,,,,0
500,500,Charleston @ Mohawk (W),,36.159288,-115.215781,,,,,,0
501,501,Charleston @ Mojave (E),,36.158725,-115.106353,,,,,,0
502,502,Charleston @ Mojave (W),,36.158947,-115.106102,,,,,,0
503,503,Charleston @ Nellis (E),,36.15895,-115.061301,,,,,,0
504,504,Charleston @ Nellis (W),,36.159153,-115.063968,,,,,,0
507,507,Charleston @ Odette (W),,36.15921,-115.287579,,,,,,0
508,508,Charleston @ Palm (E),,36.158722,-115.100674,,,,,,0
509,509,Charleston @ Plantation (E),,36.158999,-115.255819,,,,,,0
510,510,Charleston @ Palmhurst (W),,36.159212,-115.255654,,,,,,0
511,511,Charleston @ Pecos (W),,36.158977,-115.099004,,,,,,0
512,512,Charleston @ Pecos (W),,36.158976,-115.102265,,,,,,0
513,513,Charleston @ Pleasant Brook (E),,36.159144,-115.056724,,,,,,0
515,515,Charleston @ Rainbow (E),,36.15901,-115.242706,,,,,,0
516,516,Charleston @ Rainbow (W),,36.159235,-115.244603,,,,,,0
517,517,Charleston @ Rancho (E),,36.158762,-115.172033,,,,,,0
518,518,Charleston @ Rancho (W),,36.159007,-115.173398,,,,,,0
519,519,Charleston @ Redwood (W),,36.159242,-115.239945,,,,,,0
522,522,Charleston @ Sacramento (E),,36.158796,-115.087007,,,,,,0
523,523,Charleston @ Sacramento (W),,36.159001,-115.088303,,,,,,0
524,524,Charleston @ Sandhill (E),,36.158711,-115.094607,,,,,,0
525,525,Charleston @ Torrey Pines (E),,36.159039,-115.237176,,,,,,0
527,527,Charleston @ Shetland (W),,36.159032,-115.178297,,,,,,0
529,529,Charleston @ Linn (W),,36.159523,-115.048505,,,,,,0
530,530,Charleston @ Tomsik (E),,36.158971,-115.272341,,,,,,0
531,531,Charleston @ Tonopah (W),,36.159018,-115.170629,,,,,,0
532,532,Charleston @ Torrey Pines (W),,36.159302,-115.232072,,,,,,0
533,533,Charleston @ Torrey Pines (E),,36.159055,-115.23402,,,,,,0
534,534,Charleston @ Torrey Pines (W),,36.15926,-115.235842,,,,,,0
535,535,Charleston @ Upland (W),,36.159286,-115.220527,,,,,,0
536,536,Charleston @ Valley View (E),,36.158898,-115.191553,,,,,,0
538,538,Charleston @ Warbonnet (E),,36.158981,-115.266414,,,,,,0
540,540,Charleston @ Westwind (E),,36.159062,-115.218688,,,,,,0
541,541,Charleston @ Pahor (E),,36.158776,-115.168063,,,,,,0
542,542,Charleston @ Shadow (W),,36.159018,-115.166251,,,,,,0
543,543,Charleston @ Lamont (W),,36.159137,-115.069275,,,,,,0
544,544,Cheyenne @ Pecos (E),,36.21754,-115.10058,,,,,,0
546,546,Cheyenne @ Valley (E),,36.217237,-115.201239,,,,,,0
547,547,Cheyenne @ Allen (E),,36.217403,-115.187698,,,,,,0
548,548,Cheyenne @ Allen (W),,36.217603,-115.189435,,,,,,0
549,549,Cheyenne @ Berg (W),,36.217767,-115.113427,,,,,,0
550,550,Cheyenne @ Berg (E),,36.217536,-115.112408,,,,,,0
551,551,Cheyenne @ Bucyrus Erie (E),,36.217602,-115.130009,,,,,,0
552,552,Cheyenne @ Buffalo (W),,36.218407,-115.26118,,,,,,0
553,553,Cheyenne @ California (E),,36.21732,-115.194525,,,,,,0
554,554,Cheyenne @ Cimarron (W),,36.218507,-115.265577,,,,,,0
555,555,Cheyenne @ 5th (E),,36.217687,-115.136413,,,,,,0
556,556,Cheyenne @ Civic Center (E),,36.217522,-115.11931,,,,,,0
557,557,Cheyenne @ Clayton (E),,36.217552,-115.169576,,,,,,0
558,558,Cheyenne @ Clayton (W),,36.217764,-115.170882,,,,,,0
559,559,Cheyenne @ Commerce (E),,36.217847,-115.142567,,,,,,0
560,560,Cheyenne @ Commerce (W),,36.218117,-115.143649,,,,,,0
561,561,Cheyenne @ Decatur (E),,36.21718,-115.20682,,,,,,0
562,562,Cheyenne @ Decatur (W),,36.217377,-115.20841,,,,,,0
563,563,Cheyenne @ Marion (W),,36.217859,-115.071827,,,,,,0
564,564,Cheyenne @ Abels (E),,36.217614,-115.075196,,,,,,0
565,565,Cheyenne @ Englestad (W),,36.21801,-115.148258,,,,,,0
566,566,Cheyenne @ Englestad (E),,36.217774,-115.146801,,,,,,0
567,567,Cheyenne @ Jones (E),,36.216684,-115.224886,,,,,,0
568,568,Cheyenne @ Jones (W),,36.217073,-115.227255,,,,,,0
569,569,Cheyenne @ Lamb (E),,36.217599,-115.079441,,,,,,0
570,570,Cheyenne @ Lamb (W),,36.217859,-115.080747,,,,,,0
571,571,Cheyenne @ Lamont (E),,36.21796,-115.066074,,,,,,0
572,572,Cheyenne @ Lamont (W),,36.218097,-115.067303,,,,,,0
573,573,Cheyenne @ Las Vegas (E),,36.21756,-115.092598,,,,,,0
574,574,Cheyenne @ Losee (W),,36.217816,-115.129025,,,,,,0
575,575,Cheyenne @ Martin L King (E),,36.217583,-115.16062,,,,,,0
576,576,Cheyenne @ Martin L King (W),,36.217839,-115.162727,,,,,,0
577,577,Cheyenne @ Mary Dee (W),,36.217766,-115.11824,,,,,,0
578,578,Cheyenne @ Maverick (W),,36.217349,-115.230575,,,,,,0
579,579,Cheyenne @ Michael (E),,36.216896,-115.216273,,,,,,0
580,580,Cheyenne @ Michael (W),,36.217083,-115.217412,,,,,,0
581,581,Cheyenne @ Miramar (W),,36.217068,-115.22179,,,,,,0
582,582,Cheyenne @ 5th (E),,36.217619,-115.133487,,,,,,0
583,583,Cheyenne @ 5th (W),,36.217899,-115.134599,,,,,,0
585,585,Cheyenne @ Nellis (W),,36.218389,-115.062955,,,,,,0
586,586,Cheyenne @ Pecos (E),,36.21754,-115.097855,,,,,,0
587,587,Cheyenne @ Pecos (W),,36.217761,-115.099191,,,,,,0
588,588,Cheyenne @ Rainbow (E),,36.21803,-115.241509,,,,,,0
589,589,Cheyenne @ Rainbow (W),,36.21836,-115.243038,,,,,,0
590,590,Cheyenne @ Ramrod (E),,36.217567,-115.236069,,,,,,0
591,591,Cheyenne @ Rancho (E),,36.217047,-115.210977,,,,,,0
592,592,Cheyenne @ Rancho (W),,36.217197,-115.21366,,,,,,0
593,593,Cheyenne @ Sandy (W),,36.217782,-115.094366,,,,,,0
594,594,Cheyenne @ Serene (W),,36.218104,-115.239636,,,,,,0
595,595,Cheyenne @ Simmons (E),,36.217448,-115.178514,,,,,,0
596,596,Cheyenne @ Simmons (W),,36.21774,-115.18004,,,,,,0
597,597,Cheyenne @ Soaring Gulls (W),,36.218656,-115.274772,,,,,,0
598,598,Cheyenne @ Tenaya (E),,36.218069,-115.250614,,,,,,0
599,599,Cheyenne @ Tenaya (W),,36.218387,-115.252099,,,,,,0
600,600,Cheyenne @ Terry (E),,36.216799,-115.220869,,,,,,0
601,601,Cheyenne @ Torrey Pines (E),,36.21735,-115.233379,,,,,,0
602,602,Cheyenne @ Torrey Pines (W),,36.217747,-115.234819,,,,,,0
603,603,Cheyenne @ Trade (E),,36.217689,-115.154082,,,,,,0
604,604,Cheyenne @ Trade (W),,36.217898,-115.154983,,,,,,0
605,605,Cheyenne @ Van Der Meer (E),,36.217528,-115.106618,,,,,,0
606,606,Cheyenne @ Campus (W),,36.2178,-115.104139,,,,,,0
607,607,Cheyenne @ Crawford (W),,36.217757,-115.109598,,,,,,0
608,608,Cheyenne @ Walnut (E),,36.21759,-115.08848,,,,,,0
609,609,Cheyenne @ Walnut (W),,36.217848,-115.09012,,,,,,0
611,611,Cheyenne @ Whispering Willow (E),,36.216959,-115.228537,,,,,,0
618,618,Civic Center @ Basswood (S),,36.216603,-115.121108,,,,,,0
619,619,Civic Center @ Brooks (S),,36.213701,-115.121063,,,,,,0
620,620,Civic Center @ Brooks (N),,36.214436,-115.12081,,,,,,0
623,623,Civic Center @ Cartier (N),,36.207009,-115.120914,,,,,,0
624,624,Civic Center @ Putnam (S),,36.206097,-115.121164,,,,,,0
627,627,Civic Center @ Evans (N),,36.210899,-115.120758,,,,,,0
628,628,Civic Center @ Evans (S),,36.210036,-115.121242,,,,,,0
631,631,Civic Center @ Las Vegas (S),,36.201363,-115.119914,,,,,,0
632,632,Civic Center @ Lake Mead (N),,36.196504,-115.116351,,,,,,0
633,633,Civic Center @ Lake Mead (S),,36.194814,-115.116408,,,,,,0
635,635,Civic Center @ McDaniel (N),,36.201036,-115.119211,,,,,,0
636,636,Civic Center @ Lake Mead (S),,36.198404,-115.118513,,,,,,0
637,637,Civic Center @ Owens (N),,36.189073,-115.116019,,,,,,0
639,639,Civic Center @ Tonopah (N),,36.192527,-115.116101,,,,,,0
640,640,Civic Center @ Tonopah (S),,36.191719,-115.116354,,,,,,0
653,653,Commerce @ Duchess (S),,36.20651,-115.142938,,,,,,0
655,655,Campus @ CSN Cheyenne Campus (N),FERRET FALL AV & DUSTY VIEW ST,36.218619,-115.106982,,,,,,0
661,661,Convention Center @ Channel 8 (E),,36.132251,-115.161345,,,,,,0
667,667,Craig @ Allen (E),,36.239253,-115.188701,,,,,,0
668,668,Craig @ Bradley (E),,36.238719,-115.2161,,,,,,0
669,669,Craig @ Calimesa (E),,36.240239,-115.07182,,,,,,0
670,670,Craig @ Ferrell (E),,36.239291,-115.184171,,,,,,0
671,671,Craig @ Ivory (E),,36.238759,-115.218897,,,,,,0
672,672,Craig @ Jones (E),,36.238848,-115.224937,,,,,,0
674,674,Craig @ Lamb (E),,36.240308,-115.079038,,,,,,0
675,675,Craig @ Lamont (W),,36.240581,-115.066862,,,,,,0
676,676,Craig @ Lamont (E),,36.240324,-115.065255,,,,,,0
677,677,Craig @ Las Vegas (E),,36.240424,-115.056551,,,,,,0
679,679,Craig @ Nellis (E),,36.240357,-115.059716,,,,,,0
680,680,Craig @ Puebla (W),,36.240531,-115.071344,,,,,,0
682,682,Craig @ San Mateo (E),,36.238789,-115.202579,,,,,,0
683,683,Craig @ Thom (E),,36.23864,-115.210311,,,,,,0
684,684,Craig @ Nellis (W),,36.240618,-115.063253,,,,,,0
685,685,Craig @ Valley (E),,36.238983,-115.197507,,,,,,0
688,688,Decatur @ Alexander (N),,36.232485,-115.207321,,,,,,0
690,690,Decatur @ Alpine (N),,36.159682,-115.205705,,,,,,0
691,691,Decatur @ Alta (N),,36.167464,-115.205845,,,,,,0
692,692,Decatur @ Alta (S),,36.165556,-115.206214,,,,,,0
693,693,Decatur @ Bonanza (N),,36.177694,-115.205883,,,,,,0
694,694,Decatur @ Bonanza (S),,36.177067,-115.206213,,,,,,0
695,695,Decatur @ Carmen (S),,36.1826,-115.206286,,,,,,0
696,696,Decatur @ Casa Bonita (N),,36.227063,-115.207379,,,,,,0
697,697,Decatur @ Charleston (S),,36.158573,-115.206034,,,,,,0
698,698,Decatur @ Cheyenne (N),,36.217872,-115.207344,,,,,,0
699,699,Decatur @ Concord Village (N),,36.192602,-115.205881,,,,,,0
701,701,Decatur @ Desert Inn (N),,36.130532,-115.20791,,,,,,0
702,702,Decatur @ Desert Inn (S),,36.129394,-115.20826,,,,,,0
703,703,Decatur @ Lake Mead (S),,36.191967,-115.206217,,,,,,0
704,704,Decatur @ Doe (S),,36.153076,-115.208152,,,,,,0
705,705,Decatur @ Edna (S),,36.138093,-115.208289,,,,,,0
706,706,Decatur @ Eldora (N),,36.141842,-115.20796,,,,,,0
707,707,Decatur @ Eldora (S),,36.140385,-115.208294,,,,,,0
709,709,Decatur @ Eugene (N),,36.199684,-115.205709,,,,,,0
710,710,Decatur @ Eugene (S),,36.198499,-115.206073,,,,,,0
711,711,Decatur @ Evergreen (S),,36.162578,-115.206115,,,,,,0
712,712,Decatur @ Faircenter (N),,36.157983,-115.205773,,,,,,0
713,713,Decatur @ Flamingo (N),,36.115979,-115.207908,,,,,,0
714,714,Decatur @ Flamingo (S),,36.1144,-115.208261,,,,,,0
715,715,Decatur @ Alta (N),,36.165002,-115.205837,,,,,,0
718,718,Decatur @ Lake Mead (N),,36.195986,-115.205799,,,,,,0
719,719,Decatur @ Lake Mead (S),,36.194717,-115.206163,,,,,,0
720,720,Decatur @ Meadows (S),,36.169212,-115.206207,,,,,,0
722,722,Decatur @ Oakey (N),,36.148482,-115.207985,,,,,,0
723,723,Decatur @ O'Bannion (S),,36.147679,-115.208359,,,,,,0
724,724,Decatur @ Oakey (N),,36.152826,-115.207801,,,,,,0
725,725,Decatur @ Oakey (S),,36.151265,-115.208336,,,,,,0
726,726,Decatur @ Palmyra (S),,36.133142,-115.208261,,,,,,0
727,727,Decatur @ Pennwood (N),,36.137769,-115.207941,,,,,,0
728,728,Decatur @ Rancho (N),,36.213606,-115.207717,,,,,,0
730,730,Decatur @ Gowan (N),,36.223818,-115.207403,,,,,,0
731,731,Decatur @ Rancho (N),,36.206067,-115.20551,,,,,,0
734,734,Decatur @ Rochelle (S),,36.11074,-115.208207,,,,,,0
735,735,Decatur @ Harmon (N),,36.10764,-115.207827,,,,,,0
736,736,Decatur @ Royal Ridge (S),,36.105853,-115.208179,,,,,,0
737,737,Decatur @ Sahara (N),,36.145784,-115.207951,,,,,,0
738,738,Decatur @ Sahara (S),,36.143956,-115.208319,,,,,,0
739,739,Decatur @ San Miguel (N),,36.235758,-115.207413,,,,,,0
740,740,Decatur @ Sirius (N),,36.134425,-115.20793,,,,,,0
741,741,Decatur @ Smoke Ranch (N),,36.20349,-115.205527,,,,,,0
742,742,Decatur @ Smoke Ranch (S),,36.202196,-115.20598,,,,,,0
743,743,Decatur @ Spring Mountain (N),,36.126726,-115.207954,,,,,,0
744,744,Decatur @ Spring Mountain (S),,36.125382,-115.208306,,,,,,0
745,745,Decatur @ Flamingo (N),,36.119131,-115.207954,,,,,,0
747,747,Decatur @ Tropicana (N),,36.101936,-115.207778,,,,,,0
748,748,Decatur @ Twain (N),,36.122985,-115.208001,,,,,,0
749,749,Decatur @ Twain (S),,36.121905,-115.20834,,,,,,0
750,750,Decatur @ University (N),,36.110464,-115.207864,,,,,,0
751,751,Decatur @ Vegas (N),,36.188635,-115.205967,,,,,,0
752,752,Decatur @ Vegas (S),,36.187262,-115.206351,,,,,,0
753,753,Decatur @ Via San Andros (S),,36.117274,-115.208263,,,,,,0
754,754,Decatur @ Washington (N),,36.181462,-115.205934,,,,,,0
755,755,Decatur @ Washington (S),,36.180144,-115.206264,,,,,,0
756,756,Decatur @ Westmoreland (N),,36.185404,-115.205983,,,,,,0
763,763,Desert Inn @ Backstage (E),,36.129501,-115.087942,,,,,,0
764,764,Desert Inn @ Yuma (E),,36.129772,-115.122506,,,,,,0
765,765,Lamb @ Boulder (N),,36.130644,-115.083136,,,,,,0
766,766,Desert Inn @ Boulder (W),,36.129757,-115.085164,,,,,,0
767,767,Desert Inn @ Brentwood (W),,36.129771,-115.096961,,,,,,0
768,768,Desert Inn @ Burnham (W),,36.129952,-115.122498,,,,,,0
772,772,Desert Inn @ Crystal Water (W),,36.129811,-115.289704,,,,,,0
775,775,Desert Inn @ Eastern (E),,36.12973,-115.117891,,,,,,0
776,776,Desert Inn @ Eastern (W),,36.129952,-115.119356,,,,,,0
777,777,Desert Inn @ Hidden Canyon (W),,36.129879,-115.293392,,,,,,0
778,778,Desert Inn @ Joe W Brown (W),,36.129789,-115.146624,,,,,,0
779,779,Desert Inn @ La Canada (W),,36.129921,-115.132602,,,,,,0
782,782,Desert Inn @ Mojave (E),,36.129637,-115.104549,,,,,,0
783,783,Desert Inn @ Mojave (W),,36.129863,-115.105907,,,,,,0
784,784,Desert Inn @ Mariner Bay (W),,36.129743,-115.284794,,,,,,0
786,786,Desert Inn @ Pawnee (E),,36.129789,-115.127338,,,,,,0
788,788,Desert Inn @ Pecos (E),,36.129601,-115.100498,,,,,,0
789,789,Desert Inn @ Pecos (W),,36.129831,-115.101815,,,,,,0
790,790,Desert Inn @ McLeod (W),,36.129901,-115.110985,,,,,,0
791,791,Desert Inn @ Pecos McLeod Int (E),,36.129666,-115.109214,,,,,,0
792,792,Desert Inn @ Sandhill (E),,36.129497,-115.091344,,,,,,0
793,793,Desert Inn @ Sandhill (W),,36.129727,-115.093101,,,,,,0
795,795,Desert Inn @ Seminole (E),,36.129724,-115.131822,,,,,,0
796,796,Desert Inn @ Pawnee (W),,36.129981,-115.127664,,,,,,0
797,797,Desert Inn @ Surfline (W),,36.129946,-115.302718,,,,,,0
799,799,Desert Inn @ Topaz (E),,36.129694,-115.113586,,,,,,0
800,800,Desert Inn @ Topaz (W),,36.129927,-115.114922,,,,,,0
801,801,Desert Inn @ Ventana Hills (W),,36.129942,-115.298261,,,,,,0
802,802,Desert Inn @ Wayne (E),,36.129549,-115.096203,,,,,,0
816,816,Durango @ Desert Inn (S),,36.134535,-115.2791,,,,,,0
822,822,Durango @ Sahara (S),,36.139997,-115.279106,,,,,,0
823,823,Durango @ Starboard (S),,36.137366,-115.279101,,,,,,0
824,824,Durango @ Westcliff (N),,36.170148,-115.277808,,,,,,0
827,827,Eaker @ Lamb (S),,36.244413,-115.081719,,,,,,0
828,828,Eastern @ Stewart (N),,36.165548,-115.115695,,,,,,0
829,829,Eastern @ Ballard (N),,36.158166,-115.118734,,,,,,0
830,830,Eastern @ Bluegrass (N),,36.046217,-115.118072,,,,,,0
831,831,Eastern @ Bluegrass (S),,36.045564,-115.118354,,,,,,0
832,832,Eastern @ Bonanza (N),,36.174776,-115.116073,,,,,,0
833,833,Eastern @ Bonanza (S),,36.172852,-115.11629,,,,,,0
834,834,Eastern @ Cedar (N),,36.170529,-115.115886,,,,,,0
835,835,Eastern @ Cedar (S),,36.169651,-115.116103,,,,,,0
836,836,Eastern @ Chandler (N),,36.074836,-115.118585,,,,,,0
837,837,Eastern @ Charleston (S),,36.158343,-115.119054,,,,,,0
838,838,Eastern @ Desert Inn (N),,36.130434,-115.118404,,,,,,0
839,839,Eastern @ Desert Inn (S),,36.1292,-115.118713,,,,,,0
840,840,Eastern @ Eldorado (N),,36.053615,-115.118113,,,,,,0
841,841,Eastern @ Emerson (N),,36.126534,-115.118568,,,,,,0
842,842,Eastern @ Flamingo (N),,36.115688,-115.119009,,,,,,0
843,843,Eastern @ Flamingo (S),,36.11378,-115.119333,,,,,,0
844,844,Eastern @ Franklin (N),,36.155639,-115.118735,,,,,,0
845,845,Eastern @ Franklin (S),,36.154683,-115.119004,,,,,,0
846,846,Eastern @ Fremont (S),,36.160725,-115.117566,,,,,,0
847,847,Eastern @ Fremont (N),,36.160176,-115.117893,,,,,,0
848,848,Eastern @ Golden Arrow (S),,36.132051,-115.1187,,,,,,0
849,849,Eastern @ Hacienda (N),,36.09342,-115.118746,,,,,,0
850,850,Eastern @ Hacienda (S),,36.092328,-115.119006,,,,,,0
851,851,Eastern @ Harmon (N),,36.107908,-115.118924,,,,,,0
852,852,Eastern @ Harmon (S),,36.106819,-115.119215,,,,,,0
853,853,Eastern @ Harris (N),,36.17855,-115.115992,,,,,,0
854,854,Eastern @ Sunrise (N),,36.163259,-115.11573,,,,,,0
855,855,Eastern @ Karen (S),,36.139826,-115.118821,,,,,,0
856,856,Eastern @ Kirk (S),,36.177609,-115.116273,,,,,,0
857,857,Eastern @ Warm Springs (N),,36.06458,-115.118367,,,,,,0
859,859,Eastern @ Oakey (N),,36.152173,-115.11872,,,,,,0
860,860,Eastern @ Oakey (S),,36.151301,-115.118982,,,,,,0
861,861,Eastern @ Karen (N),,36.141229,-115.118592,,,,,,0
862,862,Eastern @ Oquendo (S),,36.081505,-115.11895,,,,,,0
863,863,Eastern @ Owens (S),,36.188128,-115.11625,,,,,,0
864,864,Eastern @ Palma Vista (S),,36.13591,-115.118727,,,,,,0
865,865,Eastern @ Palora (N),,36.134499,-115.118445,,,,,,0
866,866,Eastern @ Patrick (N),,36.080013,-115.118624,,,,,,0
867,867,Eastern @ Patrick (S),,36.078432,-115.118884,,,,,,0
868,868,Eastern @ Pueblo (S),,36.124463,-115.118921,,,,,,0
869,869,Eastern @ Rawhide (N),,36.090209,-115.118713,,,,,,0
870,870,Eastern @ Rawhide (S),,36.08945,-115.118982,,,,,,0
871,871,Eastern @ Reno (N),,36.096978,-115.118795,,,,,,0
872,872,Eastern @ Reno (S),,36.096159,-115.119046,,,,,,0
873,873,Eastern @ Robindale (S),,36.048957,-115.118312,,,,,,0
874,874,Eastern @ Robindale (N),,36.050054,-115.118047,,,,,,0
875,875,Eastern @ Rochelle (N),,36.111481,-115.119025,,,,,,0
876,876,Eastern @ Rochelle (S),,36.110553,-115.119279,,,,,,0
877,877,Eastern @ Russell (N),,36.085495,-115.118679,,,,,,0
878,878,Eastern @ Russell (S),,36.085678,-115.119007,,,,,,0
879,879,Eastern @ Sahara (N),,36.145313,-115.118648,,,,,,0
880,880,Eastern @ Sahara (S),,36.143589,-115.118945,,,,,,0
881,881,Eastern @ Searles (N),,36.185822,-115.115966,,,,,,0
882,882,Eastern @ Searles (S),,36.184325,-115.116213,,,,,,0
884,884,Eastern @ St Louis (N),,36.148711,-115.118695,,,,,,0
885,885,Eastern @ St Louis (S),,36.147753,-115.118926,,,,,,0
886,886,Eastern @ Stewart (S),,36.165751,-115.115946,,,,,,0
887,887,Eastern @ Isabelle (S),,36.162553,-115.116075,,,,,,0
888,888,Eastern @ Sunset Park (N),,36.068006,-115.118462,,,,,,0
889,889,Eastern @ Sunset (N),,36.072358,-115.118562,,,,,,0
890,890,Eastern @ Sunset (S),,36.07043,-115.118801,,,,,,0
891,891,Eastern @ Tioga (S),,36.120507,-115.119088,,,,,,0
892,892,Eastern @ Tompkins (N),,36.104319,-115.118892,,,,,,0
893,893,Eastern @ Tropicana (S),,36.102031,-115.11913,,,,,,0
894,894,Eastern @ Tropicana (N),,36.1008,-115.118832,,,,,,0
895,895,Eastern @ Tropicana (S),,36.099028,-115.119084,,,,,,0
896,896,Eastern @ Twain (N),,36.122755,-115.118729,,,,,,0
897,897,Eastern @ Vegas Valley (N),,36.137729,-115.118437,,,,,,0
898,898,Eastern @ Sonrisa (N),,36.120032,-115.118849,,,,,,0
899,899,Eastern @ Viking (S),,36.117272,-115.119275,,,,,,0
900,900,Eastern @ Warm Springs (S),,36.058568,-115.118498,,,,,,0
901,901,Eastern @ Warm Springs (N),,36.057454,-115.118155,,,,,,0
902,902,Eastern @ Warm Springs (S),,36.055495,-115.11843,,,,,,0
903,903,Eastern @ Washington (N),,36.181906,-115.115931,,,,,,0
904,904,Eastern @ Washington (S),,36.18043,-115.116211,,,,,,0
915,915,Englestad @ Recco (N),,36.19645,-115.147603,,,,,,0
916,916,Englestad @ Lilly (N),,36.199935,-115.147291,,,,,,0
917,917,Flamingo @ Algonquin (W),,36.114735,-115.134203,,,,,,0
918,918,Flamingo @ Annie Oakley (E),,36.114958,-115.086206,,,,,,0
919,919,Flamingo @ Arville (E),,36.115299,-115.198739,,,,,,0
920,920,Flamingo @ Arville (W),,36.115658,-115.199147,,,,,,0
921,921,Flamingo @ Torrey Pines (E),,36.11438,-115.237019,,,,,,0
922,922,Flamingo @ Baldwin (W),,36.115067,-115.062289,,,,,,0
923,923,Flamingo @ Boulder (W),,36.115067,-115.0682,,,,,,0
924,924,Flamingo @ Broadgate (W),,36.115257,-115.086529,,,,,,0
925,925,Flamingo @ Buffalo (E),,36.114539,-115.260057,,,,,,0
926,926,Flamingo @ Burnham (E),,36.114519,-115.123411,,,,,,0
927,927,Flamingo @ Burnham (W),,36.114797,-115.124402,,,,,,0
928,928,Flamingo @ Calle San Remo (W),,36.115658,-115.204247,,,,,,0
929,929,Flamingo @ Cambridge (W),,36.114792,-115.14279,,,,,,0
930,930,Flamingo @ Cameron (E),,36.115343,-115.20361,,,,,,0
932,932,Flamingo @ Claymont (E),,36.11449,-115.141726,,,,,,0
933,933,Flamingo @ Decatur (E),,36.115328,-115.207468,,,,,,0
934,934,Flamingo @ Decatur (W),,36.115581,-115.208734,,,,,,0
935,935,Flamingo @ Delos (W),,36.115437,-115.211657,,,,,,0
936,936,Flamingo @ Don Bonito (E),,36.114827,-115.080375,,,,,,0
937,937,Flamingo @ Duneville (E),,36.114619,-115.220199,,,,,,0
938,938,Flamingo @ Duneville (W),,36.114889,-115.221197,,,,,,0
940,940,Flamingo @ Eastern (E),,36.114582,-115.118247,,,,,,0
941,941,Flamingo @ Eastern (W),,36.11483,-115.1199,,,,,,0
942,942,Flamingo @ Edmond (E),,36.115101,-115.211861,,,,,,0
943,943,Flamingo @ Torrey Pines (E),,36.114378,-115.228991,,,,,,0
944,944,Flamingo @ El Camino (W),,36.114668,-115.229902,,,,,,0
945,945,Flamingo @ Eucalyptus (E),,36.114777,-115.112663,,,,,,0
946,946,Flamingo @ Koval (E),,36.114249,-115.160782,,,,,,0
949,949,Flamingo @ Hildebrand (E),,36.11499,-115.104619,,,,,,0
950,950,Flamingo @ Hotel Rio (W),,36.115577,-115.187839,,,,,,0
951,951,Flamingo @ Howard Hughes (W),,36.114547,-115.159722,,,,,,0
952,952,Flamingo @ Jimmy Durante (W),,36.114933,-115.052215,,,,,,0
953,953,Flamingo @ Jones (E),,36.114417,-115.223681,,,,,,0
954,954,Flamingo @ Jones (W),,36.114651,-115.225499,,,,,,0
955,955,Flamingo @ Koval (E),,36.11435,-115.162989,,,,,,0
956,956,Flamingo @ Koval (W),,36.11467,-115.164967,,,,,,0
957,957,Flamingo @ Las Vegas (E),,36.114505,-115.171635,,,,,,0
958,958,Flamingo @ Las Vegas (W),,36.114868,-115.174108,,,,,,0
959,959,Flamingo @ Lindell (E),,36.114858,-115.2159,,,,,,0
960,960,Flamingo @ Lindell (W),,36.115107,-115.21738,,,,,,0
961,961,Flamingo @ Maryland (E),,36.11444,-115.136057,,,,,,0
962,962,Flamingo @ Maryland (W),,36.114731,-115.139003,,,,,,0
963,963,Flamingo @ Mountain Vista (W),,36.115037,-115.073046,,,,,,0
964,964,Flamingo @ Mountain Vista (E),,36.114815,-115.072942,,,,,,0
965,965,Flamingo @ Nellis (W),,36.115028,-115.06533,,,,,,0
966,966,Flamingo @ Cabana (W),,36.115228,-115.057638,,,,,,0
967,967,Flamingo @ New Forest (E),,36.114508,-115.256567,,,,,,0
968,968,Flamingo @ Palos Verdes (E),,36.114613,-115.149887,,,,,,0
969,969,Flamingo @ Palos Verdes (W),,36.114835,-115.151226,,,,,,0
970,970,Flamingo @ Paradise (E),,36.114323,-115.152793,,,,,,0
971,971,Flamingo @ Paradise (W),,36.114435,-115.15475,,,,,,0
972,972,Flamingo @ Hospitality (E),,36.114177,-115.156381,,,,,,0
973,973,Flamingo @ Pearl (W),,36.115437,-115.097128,,,,,,0
974,974,Flamingo @ Pecos (E),,36.115111,-115.100032,,,,,,0
975,975,Flamingo @ Pecos (W),,36.115365,-115.101617,,,,,,0
978,978,Flamingo @ Rainbow (E),,36.114381,-115.242402,,,,,,0
979,979,Flamingo @ Ravenwood (E),,36.114416,-115.248573,,,,,,0
980,980,Flamingo @ Redwood (W),,36.11471,-115.239669,,,,,,0
981,981,Flamingo @ Sandalwood (W),,36.114677,-115.24794,,,,,,0
982,982,Flamingo @ Sandhill (E),,36.115113,-115.090935,,,,,,0
983,983,Flamingo @ Sandhill (W),,36.115457,-115.093068,,,,,,0
984,984,Flamingo @ Grace (W),,36.115051,-115.079074,,,,,,0
985,985,Flamingo @ Sheppard (E),,36.11481,-115.068281,,,,,,0
986,986,Flamingo @ McLeod (W),,36.11508,-115.113229,,,,,,0
987,987,Flamingo @ Spencer (E),,36.114488,-115.128009,,,,,,0
988,988,Flamingo @ Spencer (W),,36.114765,-115.129295,,,,,,0
989,989,Flamingo @ Spring Leaf (W),,36.114625,-115.244036,,,,,,0
990,990,Flamingo @ Swenson (E),,36.11455,-115.145735,,,,,,0
991,991,Flamingo @ Swenson (W),,36.114857,-115.147364,,,,,,0
992,992,Flamingo @ Tamarus (E),,36.114462,-115.132623,,,,,,0
993,993,Flamingo @ Tenaya (E),,36.114449,-115.251535,,,,,,0
994,994,Flamingo @ Torrey Pines (E),,36.114381,-115.233312,,,,,,0
995,995,Flamingo @ Torrey Pines (W),,36.11471,-115.234497,,,,,,0
996,996,Flamingo @ Valley View (E),,36.11539,-115.189479,,,,,,0
997,997,Flamingo @ Gold Coast (W),,36.115718,-115.192898,,,,,,0
1000,1000,Flamingo @ Hugh Hefner (E),,36.115359,-115.193618,,,,,,0
1001,1001,Flamingo @ Wynn (W),,36.115718,-115.195258,,,,,,0
1011,1011,Fremont @ 15th (S),,36.164484,-115.129813,,,,,,0
1014,1014,Fremont @ 8th (S),,36.167604,-115.137033,,,,,,0
1015,1015,Fremont @ 9th (W),,36.167469,-115.136367,,,,,,0
1017,1017,Fremont @ Charleston (N),,36.155321,-115.111989,,,,,,0
1020,1020,Fremont @ Bruce (S),,36.162164,-115.124434,,,,,,0
1021,1021,Fremont @ Bruce (W),,36.162848,-115.125563,,,,,,0
1024,1024,Fremont @ Eastern (W),,36.160082,-115.119168,,,,,,0
1025,1025,Fremont @ Maryland (S),,36.165569,-115.1323,,,,,,0
1026,1026,Fremont @ Maryland (W),,36.166125,-115.133245,,,,,,0
1031,1031,Fremont @ Sahara (N),,36.146203,-115.101677,,,,,,0
1033,1033,Fremont @ St Louis (N),,36.149271,-115.105142,,,,,,0
1034,1034,Fremont @ St Louis (S),,36.148161,-115.104553,,,,,,0
1035,1035,Sky Pointe @ Eagle Crest (N),,36.268021,-115.257381,,,,,,0
1036,1036,Gibson @ Auto Show (N),,36.0483,-115.028895,,,,,,0
1037,1037,Gibson @ Painted Daisy (S),,36.047747,-115.029193,,,,,,0
1039,1039,Gibson @ Auto Show (N),,36.04574,-115.029002,,,,,,0
1041,1041,Gibson @ Valley Auto (N),,36.051157,-115.028779,,,,,,0
1042,1042,Gibson @ Kelso Dunes (S),,36.050649,-115.029138,,,,,,0
1045,1045,Gowan @ Rio Robles (E),,36.224997,-115.102038,,,,,,0
1056,1056,Green Valley @ High View (S),,36.066625,-115.082592,,,,,,0
1059,1059,Green Valley @ La Mesa (S),,36.063318,-115.084284,,,,,,0
1063,1063,Green Valley @ Lone Pine (S),,36.060125,-115.085106,,,,,,0
1064,1064,Green Valley @ Robindale (S),,36.051603,-115.082623,,,,,,0
1066,1066,Green Valley @ Robindale (S),,36.048555,-115.082539,,,,,,0
1068,1068,Green Valley @ Sunset (S),,36.070263,-115.082585,,,,,,0
1069,1069,Green Valley @ Warm Springs (S),,36.055913,-115.084061,,,,,,0
1078,1078,Harmon @ Boulder (E),,36.108748,-115.05807,,,,,,0
1094,1094,Harmon @ Jimmy Durante (E),,36.110286,-115.053115,,,,,,0
1118,1118,Hillpointe @ Hillsgate (E),,36.198199,-115.290368,,,,,,0
1119,1119,Hillpointe @ Hills Center (E),,36.198108,-115.300037,,,,,,0
1120,1120,Hillpointe @ Hills Center (E),,36.19926,-115.294911,,,,,,0
1121,1121,Hills Center @ Hillpointe (S),,36.197682,-115.300672,,,,,,0
1123,1123,Hills Center @ Lake Mead (S),,36.205549,-115.300023,,,,,,0
1126,1126,Owens @ Lamb (W),,36.188628,-115.0806,,,,,,0
1127,1127,Washington @ D (W),,36.181,-115.147458,,,,,,0
1136,1136,Horizon @ College (E),,36.012528,-114.962088,,,,,,0
1137,1137,Horizon @ College (W),,36.01278,-114.964922,,,,,,0
1139,1139,Horizon @ Greenway (W),,36.012683,-114.977503,,,,,,0
1140,1140,Horizon @ Mona (W),,36.012709,-114.968112,,,,,,0
1145,1145,Horizon @ Skyline (W),,36.012664,-114.981925,,,,,,0
1168,1168,Jones @ Alfred (N),,36.207688,-115.224316,,,,,,0
1169,1169,Jones @ Alta (N),,36.166865,-115.223692,,,,,,0
1170,1170,Jones @ Alta (S),,36.16687,-115.223915,,,,,,0
1171,1171,Jones @ Carl (N),,36.192441,-115.22388,,,,,,0
1172,1172,Jones @ Carl (S),,36.19175,-115.224107,,,,,,0
1173,1173,Jones @ Carmen (N),,36.185225,-115.223854,,,,,,0
1174,1174,Jones @ Carmen (S),,36.184052,-115.224038,,,,,,0
1175,1175,Jones @ Cartier (S),,36.205754,-115.224232,,,,,,0
1176,1176,Jones @ Charleston (N),,36.160687,-115.223793,,,,,,0
1177,1177,Jones @ Charleston (S),,36.158511,-115.224115,,,,,,0
1178,1178,Jones @ US HWY 95 North (N),,36.176099,-115.223888,,,,,,0
1179,1179,Jones @ Cheyenne (S),,36.216187,-115.225809,,,,,,0
1182,1182,Jones @ Palmyra (N),,36.133679,-115.224893,,,,,,0
1183,1183,Jones @ Dayton (S),,36.169359,-115.224025,,,,,,0
1184,1184,Jones @ Denver (S),,36.176153,-115.224147,,,,,,0
1185,1185,Jones @ Desert Inn (N),,36.129903,-115.224842,,,,,,0
1186,1186,Jones @ Desert Inn (S),,36.128257,-115.225092,,,,,,0
1187,1187,Jones @ Edna (S),,36.135743,-115.225239,,,,,,0
1188,1188,Jones @ Eldora (S),,36.139405,-115.22532,,,,,,0
1189,1189,Jones @ Elton (S),,36.172308,-115.224256,,,,,,0
1190,1190,Jones @ Eugene (N),,36.199064,-115.223712,,,,,,0
1191,1191,Jones @ Eugene (S),,36.198319,-115.223947,,,,,,0
1192,1192,Jones @ Evergreen (N),,36.164009,-115.223742,,,,,,0
1193,1193,Jones @ Evergreen (S),,36.162355,-115.22398,,,,,,0
1194,1194,Jones @ Upland (N),,36.171095,-115.223921,,,,,,0
1195,1195,Jones @ Flamingo (N),,36.115467,-115.224762,,,,,,0
1196,1196,Jones @ Flamingo (S),,36.113734,-115.225032,,,,,,0
1198,1198,Jones @ Granada (N),,36.178906,-115.22382,,,,,,0
1199,1199,Jones @ Gunderson (S),,36.109687,-115.22508,,,,,,0
1200,1200,Jones @ Harmon (S),,36.106427,-115.225123,,,,,,0
1201,1201,Jones @ Heather Mist (N),,36.215103,-115.225439,,,,,,0
1202,1202,Jones @ Heather Mist (S),,36.214252,-115.225516,,,,,,0
1203,1203,Jones @ Lake Mead (N),,36.19642,-115.223781,,,,,,0
1204,1204,Jones @ Lake Mead (S),,36.195237,-115.224018,,,,,,0
1205,1205,Jones @ Eldora (N),,36.140926,-115.225079,,,,,,0
1208,1208,Jones @ Oakey (S),,36.148161,-115.225593,,,,,,0
1209,1209,Jones @ Obannon (N),,36.14874,-115.225337,,,,,,0
1210,1210,Jones @ Oakey (N),,36.152226,-115.225448,,,,,,0
1211,1211,Jones @ Oakey (S),,36.151474,-115.225716,,,,,,0
1212,1212,Jones @ Palmyra (S),,36.132327,-115.225166,,,,,,0
1214,1214,Jones @ Peak (S),,36.209449,-115.224795,,,,,,0
1215,1215,Jones @ Rochelle (N),,36.111341,-115.224796,,,,,,0
1217,1217,Jones @ Sahara (N),,36.145172,-115.225154,,,,,,0
1218,1218,Jones @ Sahara (S),,36.14366,-115.22543,,,,,,0
1219,1219,Jones @ Sheila (N),,36.210133,-115.224688,,,,,,0
1220,1220,Jones @ Smoke Ranch (N),,36.203391,-115.22367,,,,,,0
1221,1221,Jones @ Smoke Ranch (S),,36.202507,-115.223836,,,,,,0
1222,1222,Jones @ Spring Mountain (N),,36.12595,-115.224819,,,,,,0
1223,1223,Jones @ Spring Mountain (S),,36.124625,-115.225075,,,,,,0
1224,1224,Jones @ Edna (N),,36.137203,-115.224998,,,,,,0
1225,1225,Jones @ Transverse (N),,36.157265,-115.224352,,,,,,0
1226,1226,Jones @ Transverse (S),,36.156352,-115.225534,,,,,,0
1227,1227,Jones @ Tropicana (N),,36.100788,-115.224914,,,,,,0
1228,1228,Jones @ Tropicana (S),,36.101504,-115.225185,,,,,,0
1230,1230,Jones @ Twain (S),,36.121227,-115.225052,,,,,,0
1231,1231,Jones @ Twain (N),,36.122323,-115.224793,,,,,,0
1232,1232,Jones @ Vegas (N),,36.189151,-115.223967,,,,,,0
1233,1233,Jones @ Vegas (S),,36.187952,-115.22414,,,,,,0
1234,1234,Jones @ Viking (N),,36.118652,-115.224776,,,,,,0
1235,1235,Jones @ Viking (S),,36.117511,-115.225039,,,,,,0
1237,1237,Jones @ Washington (N),,36.181842,-115.223764,,,,,,0
1238,1238,Jones @ Washington (S),,36.180285,-115.223951,,,,,,0
1247,1247,Koval @ Rochelle (S),,36.111934,-115.164096,,,,,,0
1248,1248,Koval @ Flamingo (N),,36.115147,-115.16391,,,,,,0
1249,1249,Koval @ Flamingo (S),,36.113939,-115.164164,,,,,,0
1250,1250,Koval @ Harmon (N),,36.108678,-115.163837,,,,,,0
1251,1251,Koval @ Harmon (S),,36.107424,-115.164047,,,,,,0
1252,1252,Koval @ Reno (N),,36.098679,-115.163699,,,,,,0
1253,1253,Koval @ Rochelle (N),,36.11227,-115.163877,,,,,,0
1254,1254,Koval @ Sands (S),,36.121593,-115.164106,,,,,,0
1255,1255,Koval @ Tompkins (N),,36.104758,-115.163777,,,,,,0
1256,1256,Koval @ Tompkins (S),,36.104057,-115.164001,,,,,,0
1257,1257,Koval @ Tropicana (N),,36.102309,-115.163784,,,,,,0
1258,1258,Koval @ Tropicana (S),,36.100262,-115.163973,,,,,,0
1259,1259,Koval @ Westchester (N),,36.11957,-115.16395,,,,,,0
1260,1260,Koval @ Krueger (S),,36.118991,-115.164172,,,,,,0
1261,1261,Koval @ Winnick (S),,36.116955,-115.164146,,,,,,0
1262,1262,Las Vegas @ Shelbourne (N),,36.038379,-115.17214,,,,,,0
1266,1266,Las Vegas @ Belmont (S),,36.209821,-115.10711,,,,,,0
1268,1268,Las Vegas @ Bonanza (S),,36.175818,-115.136656,,,,,,0
1269,1269,Las Vegas @ Bonanza (N),,36.175499,-115.136601,,,,,,0
1273,1273,Las Vegas @ Cashman (S),,36.178181,-115.135317,,,,,,0
1274,1274,Las Vegas @ Cashman Field (N),,36.178703,-115.134872,,,,,,0
1281,1281,Las Vegas @ Nellis (S),,36.238269,-115.05852,,,,,,0
1284,1284,Las Vegas @ Foremaster (S),,36.186787,-115.134196,,,,,,0
1291,1291,Las Vegas @ Lamb (N),,36.224724,-115.081104,,,,,,0
1300,1300,Las Vegas @ McCarran (N),,36.205967,-115.113167,,,,,,0
1301,1301,Las Vegas @ McCarran (S),,36.206662,-115.112494,,,,,,0
1302,1302,Las Vegas @ Mesquite (S),,36.17284,-115.138585,,,,,,0
1307,1307,Las Vegas @ Owens (N),,36.188882,-115.133951,,,,,,0
1308,1308,Las Vegas @ Pecos (N),,36.214782,-115.098109,,,,,,0
1310,1310,Las Vegas @ Puebla (N),,36.231108,-115.070222,,,,,,0
1311,1311,Las Vegas @ Puebla (S),,36.229859,-115.072864,,,,,,0
1314,1314,Las Vegas @ Hamilton (S),,36.199762,-115.124146,,,,,,0
1315,1315,Las Vegas @ Bruce (N),,36.199081,-115.124682,,,,,,0
1316,1316,Las Vegas @ Stewart (N),,36.172209,-115.138588,,,,,,0
1318,1318,Las Vegas @ Tonopah (N),,36.192715,-115.132013,,,,,,0
1326,1326,Las Vegas @ Washington (S),,36.181954,-115.134167,,,,,,0
1328,1328,Las Vegas @ Agate (N),,36.02522,-115.17212,,,,,,0
1329,1329,Las Vegas @ Agate (S),,36.024209,-115.17255,,,,,,0
1332,1332,Las Vegas @ Paris Las Vegas (N),,36.112511,-115.172729,,,,,,0
1335,1335,Las Vegas @ Moberly (S),,36.047819,-115.17249,,,,,,0
1339,1339,Las Vegas @ Caesars Palace (S),,36.11787,-115.173037,,,,,,0
1343,1343,Las Vegas @ Charleston (S),,36.157801,-115.148276,,,,,,0
1344,1344,Las Vegas @ Slots-A-Fun (S),,36.135662,-115.162774,,,,,,0
1345,1345,Washington @ Buffalo (E),,36.181297,-115.259179,,,,,,0
1346,1346,Las Vegas @ Elvis Presley (N),,36.135569,-115.16253,,,,,,0
1348,1348,Las Vegas @ Four Seasons (N),,36.090364,-115.172673,,,,,,0
1349,1349,Las Vegas @ Elvis Presley (N),,36.13802,-115.160931,,,,,,0
1351,1351,Las Vegas @ Excalibur (S),,36.099836,-115.173216,,,,,,0
1352,1352,Las Vegas @ Serene (S),,36.021577,-115.17255,,,,,,0
1353,1353,Las Vegas @ The Wynn (N),,36.126887,-115.168166,,,,,,0
1354,1354,Las Vegas @ Fashion Show Mall (S),,36.126454,-115.168908,,,,,,0
1356,1356,Las Vegas @ Harrah's (N),,36.119215,-115.172542,,,,,,0
1358,1358,Las Vegas @ Fremont (S),,36.16953,-115.140609,,,,,,0
1360,1360,Las Vegas @ Fashion Show Drive (S),,36.128698,-115.167331,,,,,,0
1363,1363,Las Vegas @ Luxor (N),,36.094582,-115.172669,,,,,,0
1364,1364,Las Vegas @ Mandalay Bay (S),,36.092973,-115.173152,,,,,,0
1366,1366,Las Vegas @ Planet Hollywood (N),,36.109652,-115.172706,,,,,,0
1371,1371,Las Vegas @ MGM/Showcase (N),,36.102653,-115.172671,,,,,,0
1374,1374,Las Vegas @ Clark (S),,36.164917,-115.143657,,,,,,0
1375,1375,Las Vegas @ Luxor (S),,36.094748,-115.173175,,,,,,0
1376,1376,Las Vegas @ The Mirage (S),,36.120245,-115.172562,,,,,,0
1377,1377,Las Vegas @ Venetian (N),,36.12287,-115.170851,,,,,,0
1378,1378,Las Vegas @ Park MGM (S),,36.104699,-115.173275,,,,,,0
1380,1380,Las Vegas @ Oakey (S),,36.150795,-115.152875,,,,,,0
1381,1381,Las Vegas @ Oakey (N),,36.150864,-115.152544,,,,,,0
1383,1383,Las Vegas @ Pebble (N),,36.028928,-115.172187,,,,,,0
1384,1384,Las Vegas @ Pebble (S),,36.02773,-115.172557,,,,,,0
1385,1385,Las Vegas @ Post (N),,36.074489,-115.172398,,,,,,0
1386,1386,Las Vegas @ Sunset (S),,36.074741,-115.172838,,,,,,0
1389,1389,Las Vegas @ Russell (S),,36.085446,-115.17306,,,,,,0
1391,1391,Las Vegas @ Sahara (N),,36.144094,-115.156968,,,,,,0
1392,1392,Las Vegas @ Sahara (S),,36.142726,-115.158269,,,,,,0
1394,1394,Las Vegas @ Shelbourne (S),,36.038399,-115.17255,,,,,,0
1395,1395,Las Vegas @ Convention Center (N),,36.133257,-115.164016,,,,,,0
1397,1397,Las Vegas @ St Louis (N),,36.149105,-115.153654,,,,,,0
1398,1398,Las Vegas @ Resorts World (S),,36.131822,-115.16532,,,,,,0
1400,1400,Las Vegas @ Main (S),,36.148063,-115.154667,,,,,,0
1401,1401,Las Vegas @ St Louis (N),,36.146716,-115.155255,,,,,,0
1403,1403,Las Vegas @ TI/Mirage (S),,36.122751,-115.171364,,,,,,0
1405,1405,Las Vegas @ Tropicana (N),,36.099305,-115.172736,,,,,,0
1407,1407,Las Vegas @ Sahara (N),,36.140246,-115.159481,,,,,,0
1408,1408,Las Vegas @ Hilton Grand Vacations (S),,36.139232,-115.160519,,,,,,0
1409,1409,Las Vegas @ Wigwam (N),S LAS VEGAS BLVD & W SHELBOURNE AV,36.03667,-115.172186,,,,,,0
1410,1410,Las Vegas @ Wigwam (S),,36.036147,-115.17255,,,,,,0
1411,1411,Las Vegas @ Windmill (N),,36.043568,-115.172178,,,,,,0
1412,1412,Las Vegas @ Blue Diamond (S),,36.041767,-115.172557,,,,,,0
1416,1416,Lake Mead @ D (E),,36.195603,-115.148017,,,,,,0
1417,1417,Lake Mead @ H (E),,36.195581,-115.151054,,,,,,0
1418,1418,Lake Mead @ J (E),,36.195591,-115.155009,,,,,,0
1419,1419,Lake Mead @ 5th (W),,36.197029,-115.134408,,,,,,0
1420,1420,Lake Mead @ Jones (E),,36.195668,-115.226577,,,,,,0
1421,1421,Lake Mead @ San Simeon (W),,36.195904,-115.22757,,,,,,0
1422,1422,Lake Mead @ Bangle (W),,36.195879,-115.144108,,,,,,0
1423,1423,Lake Mead @ Beesley (E),,36.195946,-115.039194,,,,,,0
1424,1424,Lake Mead @ Belmont (W),,36.196038,-115.106519,,,,,,0
1425,1425,Lake Mead @ Belmont (E),,36.195767,-115.10632,,,,,,0
1426,1426,Lake Mead @ Betty (E),,36.196123,-115.057114,,,,,,0
1427,1427,Lake Mead @ Betty (W),,36.196344,-115.05807,,,,,,0
1429,1429,Lake Mead @ Bruce (E),,36.195688,-115.12327,,,,,,0
1430,1430,Lake Mead @ Bruce (W),,36.195928,-115.125808,,,,,,0
1431,1431,Lake Mead @ Buffalo (E),,36.195979,-115.258657,,,,,,0
1432,1432,Lake Mead @ Buffalo (W),,36.196427,-115.262157,,,,,,0
1433,1433,Lake Mead @ Christy (E),,36.196116,-115.051997,,,,,,0
1434,1434,Lake Mead @ Christy (W),,36.196345,-115.053265,,,,,,0
1435,1435,Lake Mead @ Civic Center (E),,36.195739,-115.115687,,,,,,0
1436,1436,Lake Mead @ Civic Center (W),,36.195979,-115.11703,,,,,,0
1437,1437,Lake Mead @ Losee (E),,36.195639,-115.142299,,,,,,0
1438,1438,Lake Mead @ Comstock (W),,36.19583,-115.166113,,,,,,0
1439,1439,Lake Mead @ Stella Lake (E),,36.195597,-115.16526,,,,,,0
1440,1440,Lake Mead @ Concord (W),,36.195814,-115.157052,,,,,,0
1441,1441,Lake Mead @ McCarran (E),,36.195728,-115.111787,,,,,,0
1444,1444,Lake Mead @ Decatur (E),,36.195418,-115.205068,,,,,,0
1445,1445,Lake Mead @ Decatur (W),,36.195596,-115.206758,,,,,,0
1446,1446,Lake Mead @ Dolly (E),,36.195679,-115.074307,,,,,,0
1447,1447,Lake Mead @ Dolly (W),,36.195888,-115.076177,,,,,,0
1448,1448,Lake Mead @ Englestad (W),,36.195824,-115.14848,,,,,,0
1449,1449,Lake Mead @ Glacier (W),,36.196199,-115.041014,,,,,,0
1450,1450,Lake Mead @ Harbor Island (W),,36.198266,-115.279535,,,,,,0
1452,1452,Lake Mead @ Hollywood (W),,36.195745,-115.027001,,,,,,0
1454,1454,Lake Mead @ James Bilbray (E),,36.195799,-115.237139,,,,,,0
1455,1455,Lake Mead @ James Bilbray (W),,36.196046,-115.238323,,,,,,0
1456,1456,Lake Mead @ Jones (E),,36.195608,-115.223377,,,,,,0
1457,1457,Lake Mead @ Jones (W),,36.195859,-115.224601,,,,,,0
1458,1458,Lake Mead @ Las Vegas (E),,36.195639,-115.128618,,,,,,0
1459,1459,Lake Mead @ Las Vegas (W),,36.196018,-115.129378,,,,,,0
1460,1460,Lake Mead @ Laguna Mist (E),,36.196639,-115.273779,,,,,,0
1461,1461,Lake Mead @ Laguna Mist (W),,36.196963,-115.274821,,,,,,0
1463,1463,Lake Mead @ Lamb (E),,36.195498,-115.079619,,,,,,0
1464,1464,Lake Mead @ Lamb (W),,36.195739,-115.080727,,,,,,0
1465,1465,Lake Mead @ Lamont (E),,36.195987,-115.06582,,,,,,0
1466,1466,Lake Mead @ Lamont (W),,36.196189,-115.067637,,,,,,0
1467,1467,Lake Mead @ Leonard (W),,36.195658,-115.211148,,,,,,0
1468,1468,Lake Mead @ Lincoln (E),,36.195509,-115.084237,,,,,,0
1469,1469,Lake Mead @ Lincoln (W),,36.195788,-115.08503,,,,,,0
1470,1470,Lake Mead @ Linn (E),,36.196115,-115.047782,,,,,,0
1471,1471,Lake Mead @ Linn (W),,36.196338,-115.048684,,,,,,0
1473,1473,Lake Mead @ Martin L King (E),,36.19557,-115.1598,,,,,,0
1474,1474,Lake Mead @ Martin L King (W),,36.195855,-115.16154,,,,,,0
1475,1475,Lake Mead @ Madeline (E),,36.197559,-115.201498,,,,,,0
1476,1476,Lake Mead @ Madeline (W),,36.197323,-115.202411,,,,,,0
1477,1477,Lake Mead @ Mariner (E),,36.196699,-115.264137,,,,,,0
1478,1478,Lake Mead @ Mariner (W),,36.197199,-115.265568,,,,,,0
1479,1479,Lake Mead @ Marion (E),,36.195828,-115.070117,,,,,,0
1480,1480,Lake Mead @ Marion (W),,36.196049,-115.071677,,,,,,0
1482,1482,Lake Mead @ McDaniel (E),,36.195708,-115.119727,,,,,,0
1483,1483,Lake Mead @ Michael (W),,36.195721,-115.215501,,,,,,0
1484,1484,Lake Mead @ Mt Hood (E),,36.19579,-115.034714,,,,,,0
1485,1485,Lake Mead @ Mt Hood (W),,36.195984,-115.034496,,,,,,0
1486,1486,Lake Mead @ Nellis (E),,36.196124,-115.061625,,,,,,0
1487,1487,Lake Mead @ Nellis (W),,36.196349,-115.06275,,,,,,0
1489,1489,Lake Mead @ Palmer (E),,36.195719,-115.10236,,,,,,0
1490,1490,Lake Mead @ Brand (W),,36.196018,-115.103729,,,,,,0
1491,1491,Lake Mead @ Pecos (E),,36.195639,-115.097258,,,,,,0
1492,1492,Lake Mead @ Pecos (W),,36.195987,-115.0992,,,,,,0
1493,1493,Lake Mead @ Pueblo Vista (E),,36.196998,-115.269458,,,,,,0
1494,1494,Lake Mead @ Pueblo Vista (W),,36.197091,-115.270555,,,,,,0
1495,1495,Lake Mead @ Ivalace (W),,36.197325,-115.019407,,,,,,0
1496,1496,Lake Mead @ Radwick (W),,36.196176,-115.022238,,,,,,0
1497,1497,Lake Mead @ Rainbow (W),,36.196079,-115.240536,,,,,,0
1498,1498,Lake Mead @ Rainbow (E),,36.195859,-115.240899,,,,,,0
1499,1499,Lake Mead @ Rancho (W),,36.19991,-115.198052,,,,,,0
1500,1500,Lake Mead @ Revere (W),,36.195804,-115.153203,,,,,,0
1502,1502,Lake Mead @ Rock Springs (W),,36.196155,-115.24861,,,,,,0
1503,1503,Lake Mead @ Sandy (E),,36.195608,-115.093618,,,,,,0
1504,1504,Lake Mead @ Sandy (W),,36.195888,-115.094429,,,,,,0
1505,1505,Lake Mead @ Saylor (E),,36.195557,-115.219457,,,,,,0
1506,1506,Lake Mead @ Michael (E),,36.195498,-115.215757,,,,,,0
1507,1507,Lake Mead @ Shatz (E),,36.195645,-115.030333,,,,,,0
1508,1508,Lake Mead @ Shatz (W),,36.195861,-115.03021,,,,,,0
1509,1509,Lake Mead @ Sloan (E),,36.196098,-115.043499,,,,,,0
1510,1510,Lake Mead @ Sloan (W),,36.196332,-115.044628,,,,,,0
1511,1511,Lake Mead @ Tonopah (E),,36.195663,-115.170754,,,,,,0
1512,1512,Lake Mead @ Tenaya (E),,36.195948,-115.250777,,,,,,0
1513,1513,Lake Mead @ Tenaya (W),,36.196183,-115.252073,,,,,,0
1514,1514,Lake Mead @ Tequesta (E),,36.195438,-115.211947,,,,,,0
1517,1517,Lake Mead @ Torrey Pines (E),,36.195739,-115.232268,,,,,,0
1518,1518,Lake Mead @ Torrey Pines (W),,36.196022,-115.234504,,,,,,0
1519,1519,Lake Mead @ Valley (E),,36.199389,-115.198498,,,,,,0
1520,1520,Lake Mead @ Walnut (E),,36.195557,-115.088547,,,,,,0
1521,1521,Lake Mead @ Walnut (W),,36.195839,-115.0901,,,,,,0
1523,1523,Lake Mead @ Winwood (W),,36.195799,-115.220206,,,,,,0
1525,1525,Lake Mead @ Lirio (E),,36.195708,-115.2294,,,,,,0
1526,1526,Lake Mead @ Ash (E),,36.049077,-114.971816,,,,,,0
1529,1529,Lake Mead @ Basic (E),,36.035909,-114.994199,,,,,,0
1530,1530,Lake Mead @ Boulder (E),,36.040121,-114.980985,,,,,,0
1531,1531,Lake Mead @ Shoshone (E),,36.056588,-114.966726,,,,,,0
1533,1533,Lake Mead @ Cholla (E),,36.042883,-114.977385,,,,,,0
1536,1536,Lake Mead @ Atlantic (E),,36.036247,-114.991559,,,,,,0
1537,1537,Lake Mead @ Ivy (E),,36.045886,-114.97428,,,,,,0
1539,1539,Lake Mead @ Center (E),,36.053191,-114.969023,,,,,,0
1541,1541,Lake Mead @ Pawnee (E),,36.059052,-114.965054,,,,,,0
1545,1545,Lake Mead @ Van Wagenen (E),,36.035208,-114.999828,,,,,,0
1547,1547,Lake Mead @ Tonopah (W),,36.195847,-115.170187,,,,,,0
1549,1549,Lamb @ Copper Sage (N),,36.244806,-115.079823,,,,,,0
1550,1550,Lamb @ Alexander (N),,36.233372,-115.080018,,,,,,0
1551,1551,Lamb @ Alexander (S),,36.232152,-115.08031,,,,,,0
1552,1552,Lamb @ Alto (N),,36.211369,-115.080036,,,,,,0
1554,1554,Lamb @ Stewart (S),,36.170413,-115.080649,,,,,,0
1555,1555,Lamb @ Baltimore (S),,36.14661,-115.08317,,,,,,0
1557,1557,Lamb @ Bonanza (N),,36.174045,-115.08031,,,,,,0
1558,1558,Lamb @ Bonanza (S),,36.172286,-115.080624,,,,,,0
1559,1559,Lamb @ Boston (N),,36.148723,-115.082978,,,,,,0
1560,1560,Lamb @ Carey (N),,36.202626,-115.08004,,,,,,0
1561,1561,Lamb @ Carey (S),,36.202404,-115.080312,,,,,,0
1562,1562,Lamb @ Karen (N),,36.141214,-115.082773,,,,,,0
1563,1563,Lamb @ Charleston (N),,36.159647,-115.080107,,,,,,0
1564,1564,Lamb @ Charleston (S),,36.158079,-115.080393,,,,,,0
1565,1565,Lamb @ Cheyenne (N),,36.218371,-115.079956,,,,,,0
1566,1566,Lamb @ Cheyenne (S),,36.218143,-115.080227,,,,,,0
1567,1567,Lamb @ Cincinnati (N),,36.145344,-115.08285,,,,,,0
1568,1568,Lamb @ Colton (N),,36.222056,-115.079973,,,,,,0
1569,1569,Lamb @ Colton (S),,36.221298,-115.080247,,,,,,0
1571,1571,Lamb @ Craig (N),,36.241647,-115.079824,,,,,,0
1572,1572,Lamb @ Craig (S),,36.239798,-115.080152,,,,,,0
1573,1573,Lamb @ Diamond Head (N),,36.170582,-115.080341,,,,,,0
1574,1574,Lamb @ Dobson (S),,36.229638,-115.080291,,,,,,0
1576,1576,Lamb @ Faberge (N),,36.229844,-115.080018,,,,,,0
1577,1577,Lamb @ Harris (S),,36.176376,-115.080562,,,,,,0
1578,1578,Lamb @ Judson (N),,36.198952,-115.080018,,,,,,0
1579,1579,Lamb @ Judson (S),,36.198741,-115.080292,,,,,,0
1580,1580,Lamb @ Karen (S),,36.140259,-115.083067,,,,,,0
1581,1581,Lamb @ Kell (N),,36.192416,-115.079881,,,,,,0
1584,1584,Lamb @ Las Vegas (N),,36.226378,-115.079998,,,,,,0
1585,1585,Lamb @ Las Vegas (S),,36.224523,-115.080288,,,,,,0
1586,1586,Lamb @ Lake Mead (N),,36.19631,-115.08,,,,,,0
1587,1587,Lamb @ Lake Mead (S),,36.196233,-115.080278,,,,,,0
1588,1588,Lamb @ Manor Green (S),,36.161617,-115.080447,,,,,,0
1590,1590,Lamb @ Owens (N),,36.188933,-115.079767,,,,,,0
1591,1591,Lamb @ Owens (S),,36.187903,-115.080064,,,,,,0
1592,1592,Lamb @ Ridgedale (N),,36.134235,-115.082833,,,,,,0
1593,1593,Lamb @ Ridgedale (S),,36.133515,-115.083117,,,,,,0
1594,1594,Lamb @ Sahara (S),,36.143884,-115.08308,,,,,,0
1595,1595,Lamb @ Sherrill (N),,36.162366,-115.080221,,,,,,0
1596,1596,Lamb @ Stewart (N),,36.167329,-115.080375,,,,,,0
1597,1597,Lamb @ Stewart (S),,36.165668,-115.080626,,,,,,0
1599,1599,Lamb @ Tonopah (S),,36.191068,-115.080193,,,,,,0
1600,1600,Lamb @ Vegas Valley (N),,36.137752,-115.082798,,,,,,0
1601,1601,Lamb @ Vegas Valley (S),,36.136355,-115.083069,,,,,,0
1602,1602,Lamb @ Washington (N),,36.181424,-115.080217,,,,,,0
1603,1603,Lamb @ Washington (S),,36.180276,-115.080561,,,,,,0
1604,1604,Lamb @ Wyoming (N),,36.152347,-115.08308,,,,,,0
1605,1605,Lamb @ Wyoming (S),,36.151354,-115.083336,,,,,,0
1614,1614,Lone Mountain @ Lincoln (W),,36.247427,-115.082514,,,,,,0
1618,1618,Lone Mountain @ Rancho (W),,36.247885,-115.241129,,,,,,0
1623,1623,Los Feliz @ Lake Mead (S),,36.199315,-115.017753,,,,,,0
1633,1633,Martin L King @ Alexander (N),,36.232463,-115.161816,,,,,,0
1634,1634,Martin L King @ Alexander (S),,36.231649,-115.162118,,,,,,0
1635,1635,Martin L King @ Alta (N),,36.166582,-115.160736,,,,,,0
1637,1637,Martin L King @ Balzar (N),,36.199853,-115.160662,,,,,,0
1638,1638,Martin L King @ Balzar (S),,36.198924,-115.160942,,,,,,0
1639,1639,Martin L King @ Bonanza (N),,36.178201,-115.160662,,,,,,0
1640,1640,Martin L King @ Bonanza (S),,36.176582,-115.160967,,,,,,0
1641,1641,Martin L King @ Broad Arrow (N),,36.222559,-115.161359,,,,,,0
1642,1642,Martin L King @ Quatro (S),,36.22204,-115.161585,,,,,,0
1643,1643,Martin L King @ Brooks (N),,36.214364,-115.160996,,,,,,0
1644,1644,Martin L King @ Brooks (S),,36.212356,-115.161205,,,,,,0
1645,1645,Martin L King @ Carey (N),,36.203956,-115.160651,,,,,,0
1646,1646,Martin L King @ Carey (S),,36.201694,-115.160983,,,,,,0
1649,1649,Martin L King @ Cheyenne (N),,36.218724,-115.161095,,,,,,0
1650,1650,Martin L King @ Cheyenne (S),,36.217009,-115.161392,,,,,,0
1651,1651,Camino Al Norte @ Craig (N),,36.240088,-115.161833,,,,,,0
1652,1652,Martin L King @ Craig (S),,36.238599,-115.162165,,,,,,0
1653,1653,Martin L King @ Gowan (N),,36.225403,-115.161516,,,,,,0
1654,1654,Martin L King @ Gowan (S),,36.224191,-115.161711,,,,,,0
1656,1656,Martin L King @ Helen (N),,36.206084,-115.160761,,,,,,0
1657,1657,Martin L King @ Helen (S),,36.20545,-115.161007,,,,,,0
1658,1658,Martin L King @ Jimmy (N),,36.193871,-115.160678,,,,,,0
1659,1659,Martin L King @ June (N),,36.208976,-115.160836,,,,,,0
1660,1660,Martin L King @ June (S),,36.208068,-115.161075,,,,,,0
1661,1661,Martin L King @ Lake Mead (N),,36.196237,-115.160636,,,,,,0
1662,1662,Martin L King @ Lake Mead (S),,36.194696,-115.160994,,,,,,0
1664,1664,Martin L King @ Madison (N),,36.184114,-115.160738,,,,,,0
1665,1665,Martin L King @ Mineral (N),,36.174172,-115.160689,,,,,,0
1666,1666,Martin L King @ U.S. 95 (S),,36.172577,-115.160948,,,,,,0
1667,1667,Martin L King @ Owens (N),,36.188983,-115.160697,,,,,,0
1669,1669,Martin L King @ Symphony Park (N),,36.172054,-115.160704,,,,,,0
1670,1670,Martin L King @ Ramble Ridge (S),,36.229248,-115.161984,,,,,,0
1671,1671,Martin L King @ Rev Wilson (N),,36.211747,-115.160919,,,,,,0
1672,1672,Martin L King @ Metro Plaza (S),,36.169148,-115.160916,,,,,,0
1674,1674,Martin L King @ Alta (N),,36.169353,-115.160733,,,,,,0
1675,1675,Martin L King @ Washington (N),,36.181537,-115.160715,,,,,,0
1676,1676,Martin L King @ Washington (S),,36.179894,-115.16104,,,,,,0
1677,1677,Martin L King @ Watercreek (N),,36.228664,-115.161691,,,,,,0
1682,1682,Main @ Bonanza (N),,36.17774,-115.142299,,,,,,0
1683,1683,Main @ Bonanza (S),,36.176277,-115.143483,,,,,,0
1685,1685,Main @ Bridger (S),,36.169076,-115.148194,,,,,,0
1695,1695,Main @ Las Vegas (N),,36.149431,-115.154177,,,,,,0
1700,1700,Main @ Stewart (N),N MAIN ST & STEWART AV,36.174483,-115.144439,,,,,,0
1701,1701,Main @ Washington (S),,36.180389,-115.140848,,,,,,0
1702,1702,Main @ Utah (N),,36.152951,-115.153888,,,,,,0
1715,1715,Maryland @ Vegas Valley (N),,36.1356,-115.136756,,,,,,0
1718,1718,Maryland @ Bonanza (N),,36.17468,-115.13041,,,,,,0
1719,1719,Maryland @ Bonanza (S),,36.173617,-115.13078,,,,,,0
1720,1720,Maryland @ Bonita (N),,36.148993,-115.136889,,,,,,0
1721,1721,Maryland @ Katie (N),,36.118524,-115.137457,,,,,,0
1723,1723,13th @ Bridger (N),,36.163197,-115.132847,,,,,,0
1724,1724,Maryland @ Bridger (S),,36.163231,-115.134444,,,,,,0
1725,1725,Maryland @ Cashman (N),,36.17809,-115.127439,,,,,,0
1726,1726,Maryland @ Charleston (N),,36.158141,-115.136811,,,,,,0
1727,1727,Maryland @ Charleston (S),,36.158173,-115.137071,,,,,,0
1730,1730,Maryland @ Cottage Grove (S),,36.110863,-115.137745,,,,,,0
1732,1732,Maryland @ Desert Inn (S),,36.128897,-115.137094,,,,,,0
1733,1733,Maryland @ Flamingo (N),,36.115406,-115.137684,,,,,,0
1734,1734,Maryland @ Flamingo (S),,36.115796,-115.137937,,,,,,0
1735,1735,Maryland @ Flamingo (S),,36.113688,-115.137948,,,,,,0
1736,1736,Maryland @ Franklin (S),,36.154156,-115.137151,,,,,,0
1737,1737,Maryland @ Franklin (N),,36.15392,-115.136873,,,,,,0
1738,1738,13th @ Fremont (N),,36.165831,-115.131116,,,,,,0
1739,1739,Maryland @ Carson (S),,36.165129,-115.133206,,,,,,0
1740,1740,Maryland @ Hacienda (N),,36.09396,-115.136726,,,,,,0
1741,1741,Maryland @ Hacienda (S),,36.093292,-115.136984,,,,,,0
1742,1742,Maryland @ Harmon (N),,36.108627,-115.137316,,,,,,0
1743,1743,Maryland @ Harmon (S),,36.107207,-115.137485,,,,,,0
1746,1746,Maryland @ Karen (S),,36.139599,-115.137022,,,,,,0
1747,1747,Maryland @ Katie (N),,36.12101,-115.137336,,,,,,0
1748,1748,Maryland @ Katie (S),,36.11975,-115.137688,,,,,,0
1749,1749,Maryland @ Karen (N),,36.141288,-115.136745,,,,,,0
1752,1752,Maryland @ Mesquite (N),,36.171405,-115.129719,,,,,,0
1753,1753,Maryland @ Mesquite (S),,36.170666,-115.130031,,,,,,0
1755,1755,Maryland @ Oakey (S),,36.15068,-115.137161,,,,,,0
1756,1756,Maryland @ Rawhide (N),,36.089637,-115.136731,,,,,,0
1758,1758,Maryland @ Reno (N),,36.097941,-115.136724,,,,,,0
1759,1759,Maryland @ Reno (S),,36.096879,-115.137019,,,,,,0
1760,1760,Maryland @ Rochelle (N),,36.111515,-115.137519,,,,,,0
1762,1762,Maryland @ Sagman (W),,36.178337,-115.127627,,,,,,0
1763,1763,Maryland @ Sahara (N),,36.144903,-115.1369,,,,,,0
1764,1764,Maryland @ Sahara (S),,36.143044,-115.13706,,,,,,0
1766,1766,Maryland @ Desert Inn (N),,36.1291,-115.136805,,,,,,0
1767,1767,Maryland @ Sierra Vista (S),,36.126491,-115.137255,,,,,,0
1768,1768,Maryland @ Sierra Vista (N),,36.126055,-115.137009,,,,,,0
1769,1769,Maryland @ St Louis (S),,36.147454,-115.137168,,,,,,0
1770,1770,13th @ Stewart (N),,36.168532,-115.129708,,,,,,0
1771,1771,Maryland @ Ogden (S),,36.167427,-115.131697,,,,,,0
1772,1772,Maryland @ Desert Inn (S),,36.132388,-115.137021,,,,,,0
1773,1773,Maryland @ Sunrise Hospital (N),,36.132146,-115.136759,,,,,,0
1774,1774,Maryland @ Tropicana (N),,36.100458,-115.136732,,,,,,0
1775,1775,Maryland @ Tropicana (S),,36.099884,-115.137072,,,,,,0
1776,1776,Maryland @ Twain (N),,36.122648,-115.137218,,,,,,0
1777,1777,Maryland @ Twain (S),,36.12151,-115.137614,,,,,,0
1778,1778,Maryland @ University (N),,36.104918,-115.137035,,,,,,0
1779,1779,Maryland @ University (S),,36.103468,-115.137225,,,,,,0
1780,1780,Maryland @ Vegas Valley (N),,36.137826,-115.136756,,,,,,0
1781,1781,Maryland @ Vegas Valley (S),,36.136694,-115.137022,,,,,,0
1783,1783,Maryland @ Wilson (W),,36.176537,-115.13078,,,,,,0
1785,1785,McCarran Airport @ McCarran Airport (N),,36.085359,-115.147959,,,,,,0
1788,1788,McLeod @ Desert Inn (N),,36.13049,-115.109619,,,,,,0
1789,1789,McLeod @ Holly Hill (S),,36.147153,-115.109992,,,,,,0
1790,1790,McLeod @ Sahara (N),,36.143117,-115.10979,,,,,,0
1791,1791,McLeod @ Karen (S),,36.140154,-115.109983,,,,,,0
1792,1792,McLeod @ Palora (N),,36.133169,-115.109658,,,,,,0
1793,1793,McLeod @ Sahara (N),,36.144739,-115.10983,,,,,,0
1794,1794,McLeod @ Sahara (S),,36.143524,-115.110001,,,,,,0
1795,1795,McLeod @ Scarlet Oak (N),,36.147638,-115.109837,,,,,,0
1796,1796,McLeod @ Schaffer (S),,36.132876,-115.10992,,,,,,0
1797,1797,McLeod @ Hebard (N),,36.138376,-115.10977,,,,,,0
1798,1798,McLeod @ Vegas Valley (S),,36.136666,-115.109931,,,,,,0
1799,1799,Meadows @ Decatur (W),,36.170275,-115.201612,,,,,,0
1800,1800,Meadows @ Valley View (W),MEADOWS LA,36.17024,-115.196976,,,,,,0
1801,1801,Meadows @ Decatur (E),,36.169997,-115.205067,,,,,,0
1819,1819,Tropicana @ Andover (W),,36.100609,-115.054369,,,,,,0
1820,1820,Stephanie @ Tropicana (S),,36.101039,-115.046389,,,,,,0
1821,1821,Mohawk @ Lake Mead (S),,36.062159,-114.96156,,,,,,0
1835,1835,Nellis @ Gowan (N),,36.22661,-115.06201,,,,,,0
1836,1836,Nellis @ Bonanza (S),,36.170627,-115.062309,,,,,,0
1837,1837,Nellis @ Las Vegas (N),,36.233447,-115.061998,,,,,,0
1838,1838,Nellis @ 3909 N. Nellis (S),,36.231767,-115.062338,,,,,,0
1839,1839,Nellis @ Alto (N),,36.211697,-115.06207,,,,,,0
1840,1840,Nellis @ Alto (S),,36.21025,-115.0624,,,,,,0
1841,1841,Nellis @ Baltimore (N),,36.147399,-115.06529,,,,,,0
1842,1842,Nellis @ Baltimore (S),,36.146748,-115.06564,,,,,,0
1843,1843,Nellis @ Bel Port (N),,36.162913,-115.062062,,,,,,0
1844,1844,Nellis @ Sun Valley (S),,36.104271,-115.064288,,,,,,0
1847,1847,Nellis @ Bonanza (N),,36.174998,-115.062037,,,,,,0
1848,1848,Nellis @ Bonanza (S),,36.17359,-115.062303,,,,,,0
1849,1849,Nellis @ Boulder (N),,36.114277,-115.064527,,,,,,0
1850,1850,Nellis @ Boulder (S),,36.11231,-115.06474,,,,,,0
1851,1851,Nellis @ Las Vegas RV Resort (N),,36.118468,-115.06472,,,,,,0
1852,1852,Nellis @ Flamingo (S),,36.118128,-115.065039,,,,,,0
1853,1853,Nellis @ Carey (N),,36.20418,-115.06203,,,,,,0
1854,1854,Nellis @ Carey (S),,36.202839,-115.062349,,,,,,0
1855,1855,Nellis @ Cecile (N),,36.21489,-115.06205,,,,,,0
1856,1856,Nellis @ Cecile (S),,36.214329,-115.062388,,,,,,0
1857,1857,Nellis @ Charleston (N),,36.15952,-115.062163,,,,,,0
1858,1858,Nellis @ Charleston (S),,36.158356,-115.062452,,,,,,0
1859,1859,Nellis @ Cheyenne (N),,36.2191,-115.06203,,,,,,0
1860,1860,Nellis @ Cheyenne (S),,36.21758,-115.062369,,,,,,0
1861,1861,Nellis @ Chicago (S),,36.150118,-115.065607,,,,,,0
1862,1862,Nellis @ Desert Inn (N),,36.130407,-115.065199,,,,,,0
1863,1863,Nellis @ Desert Inn (S),,36.12916,-115.065509,,,,,,0
1864,1864,Nellis @ Desert Winds Mobile Park (S),,36.22942,-115.062338,,,,,,0
1865,1865,Nellis @ I (N),,36.229467,-115.061998,,,,,,0
1866,1866,Nellis @ Dunes Circle (N),,36.221357,-115.062018,,,,,,0
1868,1868,Nellis @ Vegas Valley (S),,36.139897,-115.06568,,,,,,0
1869,1869,Nellis @ Flamingo (S),,36.11596,-115.06496,,,,,,0
1871,1871,Nellis @ Gowan (S),,36.224827,-115.062349,,,,,,0
1872,1872,Nellis @ Happy Valley (N),,36.134008,-115.065335,,,,,,0
1873,1873,Nellis @ Happy Valley (S),,36.132897,-115.06562,,,,,,0
1874,1874,Nellis @ Harmon (N),,36.108,-115.064227,,,,,,0
1875,1875,Nellis @ Harris (N),,36.17852,-115.06203,,,,,,0
1876,1876,Nellis @ Harris (S),,36.17712,-115.06236,,,,,,0
1877,1877,Nellis @ Judson (N),,36.200339,-115.06201,,,,,,0
1878,1878,Nellis @ Judson (S),,36.199588,-115.062338,,,,,,0
1879,1879,Nellis @ Kell (N),,36.192978,-115.062018,,,,,,0
1880,1880,Nellis @ Kell (S),,36.191859,-115.06236,,,,,,0
1881,1881,Nellis @ Las Vegas (N),,36.237081,-115.062011,,,,,,0
1882,1882,Nellis @ Las Vegas (S),,36.234839,-115.062338,,,,,,0
1883,1883,Nellis @ Lake Mead (N),,36.196639,-115.06201,,,,,,0
1884,1884,Nellis @ Lake Mead (S),,36.195567,-115.062286,,,,,,0
1885,1885,Nellis @ Monroe (N),,36.185409,-115.062037,,,,,,0
1886,1886,Nellis @ Monroe (S),,36.18453,-115.062369,,,,,,0
1887,1887,Nellis @ Tyndall (N),,36.223677,-115.06201,,,,,,0
1888,1888,Nellis @ Cheyenne (S),,36.222038,-115.062309,,,,,,0
1889,1889,Nellis @ New World (N),,36.150268,-115.06525,,,,,,0
1890,1890,Nellis @ Owens (N),,36.189591,-115.062055,,,,,,0
1891,1891,Nellis @ Owens (S),,36.188441,-115.062328,,,,,,0
1892,1892,Nellis @ Pancho Villa (S),,36.109389,-115.064597,,,,,,0
1894,1894,Nellis @ Sahara (N),,36.144967,-115.065305,,,,,,0
1895,1895,Nellis @ Sahara (S),,36.143751,-115.065621,,,,,,0
1896,1896,Nellis @ Silverado Dr (S),,36.094868,-115.064147,,,,,,0
1897,1897,Nellis @ Spyglass Hill (N),,36.142,-115.065337,,,,,,0
1898,1898,Nellis @ Charleston (S),,36.161909,-115.062408,,,,,,0
1899,1899,Nellis @ Stewart (N),,36.167202,-115.061925,,,,,,0
1900,1900,Nellis @ Stewart (S),,36.165815,-115.062249,,,,,,0
1901,1901,Nellis @ Sun Valley (N),,36.105119,-115.06412,,,,,,0
1902,1902,Nellis @ Tropicana (N),,36.101108,-115.063848,,,,,,0
1903,1903,Nellis @ Tropicana (S),,36.099733,-115.064076,,,,,,0
1904,1904,Nellis @ Twain (N),,36.122798,-115.06494,,,,,,0
1905,1905,Nellis @ Twain (S),,36.12171,-115.06523,,,,,,0
1906,1906,Nellis @ Vegas Valley (N),,36.13789,-115.065376,,,,,,0
1907,1907,Nellis @ Vegas Valley (S),,36.13636,-115.06572,,,,,,0
1908,1908,Nellis @ Vista Flora (N),,36.126629,-115.06509,,,,,,0
1909,1909,Nellis @ Vista Flora (S),,36.12589,-115.06539,,,,,,0
1911,1911,Nellis @ Washington (N),,36.182191,-115.062052,,,,,,0
1912,1912,Nellis @ Washington (S),,36.180697,-115.062319,,,,,,0
1913,1913,Nellis @ Winterwood (N),,36.154239,-115.06357,,,,,,0
1915,1915,Nevada @ Elm (W),,35.97399,-114.842619,,,,,,0
1916,1916,Nevada @ Gingerwood (E),,35.968297,-114.860318,,,,,,0
1917,1917,Nevada @ Gingerwood (W),,35.968648,-114.861109,,,,,,0
1918,1918,Nevada @ Birch (W),,35.975609,-114.839727,,,,,,0
1975,1975,Harrison @ D (E),,36.187988,-115.146738,,,,,,0
1976,1976,Owens @ D (W),,36.188549,-115.148098,,,,,,0
1978,1978,Owens @ H (W),,36.188537,-115.153109,,,,,,0
1979,1979,Owens @ H (E),,36.188289,-115.15252,,,,,,0
1980,1980,Owens @ J (E),,36.188318,-115.155839,,,,,,0
1981,1981,Owens @ J (W),,36.188579,-115.156958,,,,,,0
1982,1982,Owens @ N (E),,36.188338,-115.159647,,,,,,0
1983,1983,Owens @ 21st (E),,36.188358,-115.119909,,,,,,0
1984,1984,Owens @ Lamb (E),,36.188358,-115.075497,,,,,,0
1985,1985,Owens @ Arthur (E),,36.188269,-115.110617,,,,,,0
1989,1989,Owens @ Bruce (E),,36.188338,-115.124387,,,,,,0
1990,1990,Owens @ Bruce (W),,36.188549,-115.12571,,,,,,0
1993,1993,Owens @ Civic Center (W),,36.188588,-115.116567,,,,,,0
1994,1994,Owens @ Davis (E),,36.188338,-115.137588,,,,,,0
1995,1995,Owens @ Davis (W),,36.188579,-115.138198,,,,,,0
1997,1997,Owens @ Eastern (E),,36.188384,-115.114902,,,,,,0
1998,1998,Owens @ Vegasgreen (E),,36.188318,-115.082888,,,,,,0
1999,1999,Owens @ Walnut (W),,36.18849,-115.088069,,,,,,0
2002,2002,Owens @ Hoover (E),,36.188329,-115.127567,,,,,,0
2003,2003,Owens @ Hoover (W),,36.188537,-115.128677,,,,,,0
2004,2004,Owens @ Las Vegas (E),,36.188347,-115.134422,,,,,,0
2005,2005,Owens @ Las Vegas (W),,36.188529,-115.13468,,,,,,0
2006,2006,Owens @ Lamb (E),,36.188378,-115.078737,,,,,,0
2007,2007,Owens @ Lamont (W),,36.188748,-115.06716,,,,,,0
2012,2012,Owens @ Marion (W),,36.188599,-115.071477,,,,,,0
2013,2013,Owens @ Nellis (E),,36.188537,-115.066488,,,,,,0
2014,2014,Owens @ McDaniels (W),,36.188568,-115.120347,,,,,,0
2015,2015,Owens @ Mojave (E),,36.188189,-115.106468,,,,,,0
2017,2017,Owens @ Nellis (W),,36.188958,-115.061179,,,,,,0
2019,2019,Owens @ Nellis (W),,36.188919,-115.06275,,,,,,0
2021,2021,Owens @ James (W),,36.188397,-115.106408,,,,,,0
2022,2022,Owens @ Palmer (E),,36.1881,-115.102229,,,,,,0
2023,2023,Owens @ Patricia (W),,36.18851,-115.112039,,,,,,0
2024,2024,Owens @ Pecos (E),,36.18802,-115.097759,,,,,,0
2025,2025,Owens @ Pecos (W),,36.188238,-115.099029,,,,,,0
2026,2026,Owens @ Sandhill (E),,36.188218,-115.088328,,,,,,0
2028,2028,Owens @ Stevens (W),,36.188397,-115.092769,,,,,,0
2029,2029,Owens @ Stevens (E),,36.188147,-115.091798,,,,,,0
2032,2032,Owens @ Thata (E),,36.188349,-115.071657,,,,,,0
2033,2033,Owens @ Lamb (W),,36.188619,-115.076865,,,,,,0
2043,2043,Palm @ Charleston (S),,36.158112,-115.101221,,,,,,0
2044,2044,Palm @ Olive (S),,36.154004,-115.101121,,,,,,0
2045,2045,Palm @ Olive (N),,36.154228,-115.100908,,,,,,0
2056,2056,Paradise @ Sahara (S),,36.144961,-115.154323,,,,,,0
2058,2058,Paradise @ Corporate (S),,36.117915,-115.155069,,,,,,0
2059,2059,Paradise @ Desert Inn (S),,36.128798,-115.154991,,,,,,0
2061,2061,Paradise @ Flamingo (S),,36.113658,-115.153908,,,,,,0
2062,2062,Paradise @ Gus Giuffre (S),,36.09718,-115.148821,,,,,,0
2063,2063,Paradise @ Harmon (S),,36.110145,-115.152867,,,,,,0
2064,2064,Paradise @ Harmon (S),,36.107581,-115.152036,,,,,,0
2065,2065,Paradise @ Naples (S),,36.105001,-115.151239,,,,,,0
2066,2066,Paradise @ Elvis Presley (S),,36.134836,-115.154977,,,,,,0
2067,2067,Paradise @ St Louis (N),,36.146218,-115.153301,,,,,,0
2069,2069,Paradise @ Sahara (S),,36.142296,-115.154935,,,,,,0
2070,2070,Paradise @ Sands (S),,36.120237,-115.155134,,,,,,0
2071,2071,Paradise @ Edison (S),,36.12535,-115.155064,,,,,,0
2072,2072,Paradise @ Tropicana (S),,36.102179,-115.150364,,,,,,0
2073,2073,Paradise @ Elvis Presley (S),,36.139033,-115.154926,,,,,,0
2078,2078,Patrick @ Caballo (W),,36.078378,-115.050963,,,,,,0
2079,2079,Patrick @ Stephanie (W),,36.078461,-115.045973,,,,,,0
2083,2083,Pecos @ Alto (S),,36.210404,-115.098628,,,,,,0
2085,2085,Pecos @ Stewart (N),,36.16532,-115.098058,,,,,,0
2086,2086,Pecos @ Bartlett (N),,36.200599,-115.098278,,,,,,0
2087,2087,Pecos @ Bartlett (S),,36.199961,-115.098543,,,,,,0
2089,2089,Pecos @ Bonanza (N),,36.174059,-115.098109,,,,,,0
2090,2090,Pecos @ Bonanza (S),,36.173027,-115.098416,,,,,,0
2091,2091,Pecos @ Carey (N),,36.203688,-115.098298,,,,,,0
2092,2092,Pecos @ Carey (S),,36.202855,-115.098564,,,,,,0
2093,2093,Pecos @ San Antonio (N),,36.206908,-115.098338,,,,,,0
2094,2094,Pecos @ Cartier (S),,36.20648,-115.0986,,,,,,0
2095,2095,Pecos @ Casey (S),,36.095295,-115.101165,,,,,,0
2096,2096,Pecos @ Charleston (N),,36.15933,-115.100908,,,,,,0
2097,2097,Pecos @ Aristos (S),,36.216871,-115.098703,,,,,,0
2098,2098,Pecos @ Colton (S),,36.220779,-115.098728,,,,,,0
2099,2099,Pecos @ Cedar Drainage Trail (N),,36.170072,-115.098079,,,,,,0
2100,2100,Pecos @ Cedar Drainage Trail (S),,36.169544,-115.098365,,,,,,0
2101,2101,Pecos @ Flamingo (N),,36.114447,-115.100709,,,,,,0
2105,2105,Pecos @ Geist (N),,36.212658,-115.098369,,,,,,0
2106,2106,Pecos @ Gowan (S),,36.224352,-115.098793,,,,,,0
2107,2107,Pecos @ Hacienda (N),,36.094239,-115.100859,,,,,,0
2108,2108,Pecos @ Hacienda (S),,36.092778,-115.101153,,,,,,0
2109,2109,Pecos @ Harmon (N),,36.10833,-115.100569,,,,,,0
2110,2110,Pecos @ Harmon (S),,36.10715,-115.100853,,,,,,0
2111,2111,Pecos @ Las Vegas (N),,36.21532,-115.098408,,,,,,0
2112,2112,Pecos @ Lake Mead (N),,36.196539,-115.098249,,,,,,0
2113,2113,Pecos @ Lake Mead (S),,36.19514,-115.098509,,,,,,0
2114,2114,Pecos @ Las Vegas (S),,36.213893,-115.098702,,,,,,0
2115,2115,Pecos @ Madama (N),,36.185316,-115.098169,,,,,,0
2116,2116,Pecos @ Milenko (S),,36.110366,-115.100904,,,,,,0
2117,2117,Pecos @ Mojave (N),,36.123377,-115.106327,,,,,,0
2118,2118,Pecos @ Owens (N),,36.18882,-115.098178,,,,,,0
2119,2119,Pecos @ Owens (S),,36.187657,-115.098483,,,,,,0
2120,2120,Pecos @ Brookfield (S),,36.090464,-115.101127,,,,,,0
2121,2121,Pecos @ Patrick (N),,36.079779,-115.1008,,,,,,0
2122,2122,Pecos @ Patrick (S),,36.078345,-115.101077,,,,,,0
2123,2123,Pecos @ Post (N),,36.076967,-115.100768,,,,,,0
2124,2124,Pecos @ Pepper (S),,36.07593,-115.101043,,,,,,0
2125,2125,Pecos @ Perliter (N),,36.19239,-115.098209,,,,,,0
2126,2126,Pecos @ Perliter (S),,36.192081,-115.098485,,,,,,0
2127,2127,Pecos @ Rawhide (N),,36.090349,-115.100839,,,,,,0
2128,2128,Pecos @ Reno (N),,36.097689,-115.100888,,,,,,0
2130,2130,Pecos @ Rochelle (N),,36.111765,-115.100683,,,,,,0
2131,2131,Pecos @ Russell (N),,36.087047,-115.10082,,,,,,0
2132,2132,Pecos @ Russell (S),,36.085605,-115.10111,,,,,,0
2133,2133,Pecos @ Charleston (N),,36.162477,-115.099049,,,,,,0
2134,2134,Pecos @ Stewart (S),,36.165675,-115.098341,,,,,,0
2135,2135,Pecos @ Sunrise (S),,36.161746,-115.100223,,,,,,0
2136,2136,Pecos @ Sunset (N),,36.07288,-115.1007,,,,,,0
2137,2137,Pecos @ Tompkins (N),,36.104549,-115.100689,,,,,,0
2138,2138,Pecos @ Tompkins (S),,36.103106,-115.101048,,,,,,0
2139,2139,Pecos @ Tropicana (N),,36.100669,-115.100879,,,,,,0
2140,2140,Pecos @ Tropicana (S),,36.099406,-115.101184,,,,,,0
2141,2141,Pecos @ Saddle (N),,36.117582,-115.100896,,,,,,0
2142,2142,Pecos @ Washington (N),,36.18135,-115.098138,,,,,,0
2143,2143,Pecos @ Washington (S),,36.180396,-115.098447,,,,,,0
2144,2144,Pecos McLeod Int @ Desert Inn (S),,36.128999,-115.109941,,,,,,0
2145,2145,Pecos @ McLeod (S),,36.124767,-115.108418,,,,,,0
2146,2146,Pecos @ Mojave (S),,36.12223,-115.105334,,,,,,0
2163,2163,Pueblo @ Concho (S),,36.050399,-114.959029,,,,,,0
2165,2165,Pueblo @ Kirk (S),,36.053348,-114.959009,,,,,,0
2178,2178,Rainbow @ Accent (S),,36.239584,-115.242358,,,,,,0
2179,2179,Rainbow @ Alexander (N),,36.233559,-115.242191,,,,,,0
2180,2180,Rainbow @ Alexander (S),,36.231903,-115.242427,,,,,,0
2181,2181,Rainbow @ Alta (N),,36.166941,-115.244102,,,,,,0
2182,2182,Rainbow @ Alta (S),,36.165939,-115.244469,,,,,,0
2183,2183,Rainbow @ Ann (S),,36.262566,-115.242527,,,,,,0
2185,2185,Rainbow @ Buckskin (N),,36.222372,-115.242199,,,,,,0
2186,2186,Rainbow @ Charleston (N),,36.159959,-115.243566,,,,,,0
2187,2187,Rainbow @ Charleston (S),,36.158408,-115.243867,,,,,,0
2188,2188,Rainbow @ Cheyenne (N),,36.218605,-115.242195,,,,,,0
2189,2189,Rainbow @ Cheyenne (S),,36.217347,-115.24243,,,,,,0
2190,2190,Rainbow @ Palmyra (S),,36.132773,-115.243137,,,,,,0
2192,2192,Rainbow @ Del Rey (N),,36.155811,-115.243344,,,,,,0
2193,2193,Rainbow @ Del Rey (S),,36.154912,-115.243678,,,,,,0
2194,2194,Rainbow @ Desert Inn (N),,36.130188,-115.242821,,,,,,0
2195,2195,Rainbow @ Desert Inn (S),,36.12884,-115.243163,,,,,,0
2196,2196,Rainbow @ Edna (N),,36.137494,-115.242768,,,,,,0
2197,2197,Rainbow @ Eldora (N),,36.141155,-115.242759,,,,,,0
2198,2198,Rainbow @ Endora (N),,36.118696,-115.242802,,,,,,0
2199,2199,Rainbow @ Endora (S),,36.117713,-115.243137,,,,,,0
2200,2200,Rainbow @ Flamingo (N),,36.115383,-115.242793,,,,,,0
2201,2201,Rainbow @ Flamingo (S),,36.113531,-115.243129,,,,,,0
2202,2202,Rainbow @ Gazelle (N),,36.193013,-115.242204,,,,,,0
2204,2204,Rainbow @ Gowan (N),,36.225985,-115.242213,,,,,,0
2207,2207,Rainbow @ Hacienda (S),,36.091797,-115.243102,,,,,,0
2208,2208,Rainbow @ Charleston (S),,36.161132,-115.244019,,,,,,0
2209,2209,Rainbow @ Alta (N),,36.163465,-115.24391,,,,,,0
2210,2210,Rainbow @ Lake Mead (N),,36.196526,-115.241887,,,,,,0
2211,2211,Rainbow @ Lake Mead (S),,36.194403,-115.242406,,,,,,0
2213,2213,Rainbow @ Light Breeze (N),,36.216703,-115.242193,,,,,,0
2214,2214,Rainbow @ Light Breeze (S),,36.215033,-115.242406,,,,,,0
2217,2217,Rainbow @ Obannon (S),,36.147311,-115.243281,,,,,,0
2218,2218,Rainbow @ Oakey (N),,36.148755,-115.242975,,,,,,0
2219,2219,Rainbow @ Oakey (N),,36.152405,-115.243163,,,,,,0
2220,2220,Rainbow @ Oakey (S),,36.150976,-115.243466,,,,,,0
2222,2222,Rainbow @ Palmyra (N),,36.133813,-115.242791,,,,,,0
2223,2223,Rainbow @ Peak (N),,36.211327,-115.242185,,,,,,0
2224,2224,Rainbow @ Peak (S),,36.210149,-115.242391,,,,,,0
2225,2225,Rainbow @ Red Coach (S),,36.243418,-115.242348,,,,,,0
2226,2226,Rainbow @ Riverdale (N),,36.230275,-115.242215,,,,,,0
2227,2227,Rainbow @ Riverdale (S),,36.229585,-115.242415,,,,,,0
2228,2228,Rainbow @ Sahara (N),,36.145465,-115.242798,,,,,,0
2229,2229,Rainbow @ Sahara (S),,36.14347,-115.24309,,,,,,0
2230,2230,Rainbow @ Silverstream (N),,36.179313,-115.242172,,,,,,0
2231,2231,Rainbow @ Smoke Ranch (N),,36.20407,-115.242182,,,,,,0
2232,2232,Rainbow @ Smoke Ranch (S),,36.202831,-115.2424,,,,,,0
2233,2233,Rainbow @ Snake River (S),,36.257915,-115.242459,,,,,,0
2234,2234,Rainbow @ Spring Mountain (N),,36.126945,-115.24282,,,,,,0
2235,2235,Rainbow @ Spring Mountain (S),,36.124646,-115.243152,,,,,,0
2236,2236,Rainbow @ Spring Valley (N),,36.111712,-115.242809,,,,,,0
2237,2237,Rainbow @ Spring Valley S. (S),,36.102657,-115.243228,,,,,,0
2239,2239,Rainbow @ Spring Valley N. (S),,36.10998,-115.243163,,,,,,0
2241,2241,Rainbow @ Eldora (S),,36.140145,-115.243101,,,,,,0
2242,2242,Rainbow @ Welcome (S),,36.253851,-115.242395,,,,,,0
2245,2245,Rainbow @ Tropicana (S),,36.098852,-115.243239,,,,,,0
2247,2247,Rainbow @ Twain (N),,36.122504,-115.242812,,,,,,0
2249,2249,Rainbow @ Twain (S),,36.121377,-115.243149,,,,,,0
2250,2250,Rainbow @ Vegas (N),,36.190143,-115.242172,,,,,,0
2251,2251,Rainbow @ Vegas (S),,36.187962,-115.242414,,,,,,0
2252,2252,Rainbow @ Washington (N),,36.181579,-115.242153,,,,,,0
2253,2253,Rainbow @ Washington (S),,36.180135,-115.242479,,,,,,0
2254,2254,Rainbow @ Westcliff (S),,36.173039,-115.244581,,,,,,0
2255,2255,Rainbow @ Westcliff (N),,36.172729,-115.244193,,,,,,0
2256,2256,Rainbow @ White Sands (S),,36.169996,-115.244534,,,,,,0
2257,2257,Rainbow @ Wild Bob (N),,36.23688,-115.242146,,,,,,0
2258,2258,Rainbow @ Wild Bob (S),,36.23578,-115.242393,,,,,,0
2259,2259,Rainbow @ Willow Lake (S),,36.221195,-115.242405,,,,,,0
2260,2260,Rainbow @ Willow Wood (S),,36.224785,-115.242414,,,,,,0
2261,2261,Rainbow @ Yorktown (N),,36.207435,-115.242183,,,,,,0
2262,2262,Rainbow @ Yorktown (S),,36.20647,-115.242386,,,,,,0
2263,2263,Rampart @ Cheyenne (S),,36.21826,-115.27895,,,,,,0
2264,2264,Rampart @ Del Webb (S),,36.20975,-115.2791,,,,,,0
2265,2265,Rampart @ Lake Mead (N),,36.200609,-115.281369,,,,,,0
2268,2268,Rampart @ Scholar (N),,36.197078,-115.284659,,,,,,0
2270,2270,Rancho @ Airport (N),,36.207394,-115.203029,,,,,,0
2272,2272,Jimmy Durante @ Tropicana (N),,36.101159,-115.039509,,,,,,0
2273,2273,Rancho @ Alta (S),,36.165616,-115.172828,,,,,,0
2275,2275,Rancho @ Bonanza (S),,36.177,-115.175764,,,,,,0
2278,2278,Rancho @ Carey (N),,36.203424,-115.199337,,,,,,0
2279,2279,Rancho @ Charleston (N),,36.159608,-115.172637,,,,,,0
2281,2281,Rancho @ Cheyenne (N),,36.217601,-115.212344,,,,,,0
2282,2282,Rancho @ Cheyenne (S),,36.216615,-115.211824,,,,,,0
2283,2283,Rancho @ Coran (N),,36.196862,-115.193375,,,,,,0
2284,2284,Rancho @ Coran (S),,36.195309,-115.192419,,,,,,0
2285,2285,Rancho @ Craig (N),,36.240762,-115.233475,,,,,,0
2286,2286,Rancho @ Craig (S),,36.238941,-115.232181,,,,,,0
2288,2288,Rancho @ Decatur (N),,36.213842,-115.208882,,,,,,0
2290,2290,Rancho @ Decatur (N),,36.210576,-115.205906,,,,,,0
2291,2291,Rancho @ Decatur (S),,36.208455,-115.20442,,,,,,0
2292,2292,Rancho @ Duncan (N),,36.22782,-115.221666,,,,,,0
2293,2293,Rancho @ Duncan (S),,36.227007,-115.221301,,,,,,0
2296,2296,Rancho @ Ernest May (N),,36.180012,-115.178094,,,,,,0
2297,2297,Rancho @ Ernest May (S),,36.17893,-115.177528,,,,,,0
2298,2298,Rancho @ Gowan (N),,36.225301,-115.219295,,,,,,0
2299,2299,Rancho @ Gowan (S),,36.224044,-115.218638,,,,,,0
2300,2300,Rancho @ Holly (N),,36.191622,-115.188661,,,,,,0
2301,2301,Rancho @ Jay (N),,36.2218,-115.216184,,,,,,0
2302,2302,Rancho @ Jones (N),,36.233472,-115.226801,,,,,,0
2303,2303,Rancho @ Lake Mead (N),,36.200648,-115.19685,,,,,,0
2304,2304,Rancho @ Lake Mead (S),,36.199411,-115.19621,,,,,,0
2306,2306,Rancho @ Lone Mountain (S),,36.247256,-115.239814,,,,,,0
2308,2308,Rancho @ Melody (S),,36.1928,-115.190139,,,,,,0
2309,2309,Rancho @ Mesquite (N),,36.173807,-115.173087,,,,,,0
2310,2310,Rancho @ Mesquite (S),,36.173026,-115.173199,,,,,,0
2311,2311,Rancho @ Michael (S),,36.221167,-115.215977,,,,,,0
2312,2312,Rancho @ Airport (S),,36.206175,-115.202353,,,,,,0
2316,2316,Rancho @ Red Coach (S),,36.24264,-115.235562,,,,,,0
2317,2317,Rancho @ Palomino (N),,36.163247,-115.172536,,,,,,0
2318,2318,Rancho @ Palomino (S),,36.162024,-115.172876,,,,,,0
2319,2319,Rancho @ Park Way (N),,36.168527,-115.17243,,,,,,0
2320,2320,Rancho @ Pinto (N),,36.16485,-115.17247,,,,,,0
2321,2321,Rancho @ 4233 N. Rancho (S),,36.23682,-115.230254,,,,,,0
2322,2322,Rancho @ Rancho Bel Air (S),,36.170751,-115.172736,,,,,,0
2324,2324,Rancho @ Redondo (N),,36.17173,-115.172537,,,,,,0
2325,2325,Rancho @ Riverside (S),,36.18496,-115.182897,,,,,,0
2327,2327,Rancho @ Rainbow (S),,36.250296,-115.242525,,,,,,0
2328,2328,Rancho @ Smoke Ranch (S),,36.20207,-115.198596,,,,,,0
2330,2330,Rancho @ Vegas (N),,36.188831,-115.186107,,,,,,0
2331,2331,Rancho @ Vegas (S),,36.188198,-115.185889,,,,,,0
2333,2333,Rancho @ Washington (N),,36.181615,-115.17952,,,,,,0
2334,2334,Rancho @ Washington (S),,36.180659,-115.178995,,,,,,0
2340,2340,Reno @ Haven (E),,36.097179,-115.167837,,,,,,0
2341,2341,Reno @ Haven (W),,36.097357,-115.168861,,,,,,0
2345,2345,Revere @ Carey (N),,36.203779,-115.15172,,,,,,0
2347,2347,Revere @ Nelson (N),,36.20553,-115.151762,,,,,,0
2372,2372,Rossmoyne @ Baron (E),,36.207499,-115.146629,,,,,,0
2374,2374,Rossmoyne @ Revere (E),,36.20865,-115.15121,,,,,,0
2380,2380,Sahara @ 15th (E),,36.144158,-115.132551,,,,,,0
2381,2381,Sahara @ 6th (E),,36.14376,-115.146218,,,,,,0
2383,2383,Sahara @ Arden (E),,36.144228,-115.073969,,,,,,0
2386,2386,Sahara @ Arville (W),,36.144639,-115.200543,,,,,,0
2387,2387,Sahara @ Atlantic (E),,36.144184,-115.113969,,,,,,0
2389,2389,Sahara @ Atlantic (W),,36.144501,-115.114889,,,,,,0
2393,2393,Sahara @ Buffalo (E),,36.143538,-115.260019,,,,,,0
2394,2394,Sahara @ Buffalo (W),,36.143838,-115.261635,,,,,,0
2395,2395,Sahara @ Burnham (E),,36.144174,-115.122438,,,,,,0
2399,2399,Sahara @ Cimarron (E),,36.143718,-115.26936,,,,,,0
2400,2400,Sahara @ Commercial Center (W),,36.144236,-115.141603,,,,,,0
2401,2401,Sahara @ Decatur (W),,36.144668,-115.204711,,,,,,0
2402,2402,Sahara @ Decatur (E),,36.144374,-115.20744,,,,,,0
2404,2404,Sahara @ Decatur (W),,36.144679,-115.208779,,,,,,0
2407,2407,Sahara @ Durango (E),,36.143927,-115.278056,,,,,,0
2408,2408,Sahara @ Cimarron (E),,36.14383,-115.274059,,,,,,0
2409,2409,Sahara @ Eastern (E),,36.144163,-115.118003,,,,,,0
2410,2410,Sahara @ Eastern (W),,36.144458,-115.120042,,,,,,0
2411,2411,Sahara @ Edmond (E),,36.144312,-115.211911,,,,,,0
2413,2413,Sahara @ El Camino (E),,36.144,-115.229047,,,,,,0
2414,2414,Sahara @ Tomsik (W),,36.144142,-115.274251,,,,,,0
2415,2415,Jimmy Durante @ Tropicana (N),,36.104029,-115.039928,,,,,,0
2417,2417,Sahara @ Fremont (W),,36.145385,-115.102156,,,,,,0
2418,2418,Sahara @ Fort Apache (E),,36.144236,-115.297009,,,,,,0
2419,2419,Sahara @ Boulder (E),,36.145306,-115.101753,,,,,,0
2421,2421,Sahara @ Fort Apache (E),,36.144259,-115.302033,,,,,,0
2423,2423,Sahara @ Jones (E),,36.144096,-115.224271,,,,,,0
2424,2424,Sahara @ Jones (W),,36.144367,-115.2263,,,,,,0
2425,2425,Sahara @ Las Vegas (E),,36.143545,-115.156433,,,,,,0
2426,2426,Sahara @ Las Vegas (W),,36.143795,-115.158243,,,,,,0
2427,2427,Sahara @ Lake Sahara (E),,36.143948,-115.28308,,,,,,0
2429,2429,Sahara @ Lamb (E),,36.144201,-115.082306,,,,,,0
2430,2430,Sahara @ Lamb (W),,36.144417,-115.083484,,,,,,0
2431,2431,Sahara @ Frank (W),,36.144431,-115.068634,,,,,,0
2432,2432,Sahara @ Las Verdes (E),,36.144288,-115.193706,,,,,,0
2433,2433,Sahara @ Lindell (E),,36.144238,-115.216178,,,,,,0
2439,2439,Sahara @ Maryland (E),,36.1441,-115.13649,,,,,,0
2441,2441,Sahara @ Maryland (W),,36.144354,-115.138199,,,,,,0
2442,2442,Sahara @ McLeod (E),,36.144129,-115.109251,,,,,,0
2443,2443,Sahara @ McLeod (W),,36.144455,-115.110322,,,,,,0
2444,2444,Sahara @ Mojave (E),,36.144225,-115.105005,,,,,,0
2445,2445,Sahara @ Mojave (W),,36.144514,-115.105886,,,,,,0
2449,2449,Sahara @ Orchard Valley (W),,36.144734,-115.03872,,,,,,0
2450,2450,Sahara @ Caravelle (W),,36.145181,-115.061263,,,,,,0
2453,2453,Sahara @ Rancho (E),,36.144108,-115.174764,,,,,,0
2454,2454,Sahara @ Paradise (E),,36.143481,-115.154145,,,,,,0
2456,2456,Sahara @ Rainbow (E),,36.143995,-115.241914,,,,,,0
2457,2457,Sahara @ Rainbow (W),,36.144297,-115.243591,,,,,,0
2458,2458,Sahara @ Rancho (W),,36.144479,-115.174593,,,,,,0
2460,2460,Sahara @ Redwood (E),,36.143941,-115.237767,,,,,,0
2461,2461,Sahara @ Redwood (W),,36.144263,-115.238869,,,,,,0
2465,2465,Sahara @ Nellis (E),,36.144219,-115.069417,,,,,,0
2468,2468,Sahara @ Sandhill (W),,36.146398,-115.092719,,,,,,0
2469,2469,Sahara @ Sandhill (E),,36.146185,-115.09357,,,,,,0
2471,2471,Sahara @ Santa Rosa (W),,36.143932,-115.149904,,,,,,0
2473,2473,Sahara @ Sloan (W),,36.144711,-115.047918,,,,,,0
2478,2478,Sahara @ Tam (W),,36.143968,-115.16286,,,,,,0
2480,2480,Sahara @ Tenaya (E),,36.143774,-115.251358,,,,,,0
2481,2481,Sahara @ Tenaya (W),,36.144051,-115.252616,,,,,,0
2482,2482,Sahara @ Torrey Pines (W),,36.14422,-115.233207,,,,,,0
2483,2483,Sahara @ Torrey Pines (E),,36.143904,-115.233394,,,,,,0
2485,2485,Sahara @ Tree Line (W),,36.144686,-115.034525,,,,,,0
2487,2487,Sahara @ Valley View (E),,36.144263,-115.189838,,,,,,0
2489,2489,Sahara @ Walnut (W),,36.144478,-115.087909,,,,,,0
2492,2492,Sahara @ Winterwood (W),,36.14617,-115.05774,,,,,,0
2504,2504,Sands @ Koval (E),,36.122252,-115.163026,,,,,,0
2505,2505,Sands @ Koval (W),,36.122582,-115.164882,,,,,,0
2506,2506,Sands @ Las Vegas (E),,36.125149,-115.168441,,,,,,0
2509,2509,Sands @ Paradise (W),,36.12147,-115.156038,,,,,,0
2520,2520,Simmons @ Alexander (S),,36.231647,-115.180296,,,,,,0
2521,2521,Simmons @ Colton (S),,36.221743,-115.179804,,,,,,0
2524,2524,Simmons @ Craig (S),,36.238629,-115.180307,,,,,,0
2526,2526,Simmons @ Gowan (S),,36.224287,-115.179924,,,,,,0
2530,2530,Smoke Ranch @ Steinke (E),,36.20321,-115.239131,,,,,,0
2531,2531,Smoke Ranch @ James Bilbray (W),,36.203414,-115.23802,,,,,,0
2538,2538,Smoke Ranch @ Rainbow (E),,36.20325,-115.2413,,,,,,0
2539,2539,Smoke Ranch @ Rainbow (W),,36.203484,-115.242731,,,,,,0
2543,2543,Smoke Ranch @ Rock Springs (W),,36.203519,-115.247397,,,,,,0
2546,2546,Smoke Ranch @ Torrey Pines (W),,36.203345,-115.233623,,,,,,0
2553,2553,Spring Mountain @ Polaris (W),,36.126459,-115.184967,,,,,,0
2554,2554,Spring Mountain @ Arville (E),,36.12626,-115.19868,,,,,,0
2555,2555,Spring Mountain @ Arville (W),,36.126417,-115.199948,,,,,,0
2558,2558,Spring Mountain @ Decatur (E),,36.126198,-115.206621,,,,,,0
2559,2559,Spring Mountain @ Decatur (W),,36.12634,-115.20883,,,,,,0
2560,2560,Spring Mountain @ Duneville (E),,36.125592,-115.220394,,,,,,0
2561,2561,Spring Mountain @ El Camino (E),,36.125455,-115.230235,,,,,,0
2562,2562,Spring Mountain @ El Camino (W),,36.125622,-115.230797,,,,,,0
2563,2563,Spring Mountain @ Mel Torme (E),,36.125446,-115.172526,,,,,,0
2565,2565,Spring Mountain @ Decatur (E),,36.126059,-115.210865,,,,,,0
2566,2566,Spring Mountain @ Hauck (W),,36.12619,-115.211597,,,,,,0
2570,2570,Spring Mountain @ Jones (E),,36.125423,-115.223876,,,,,,0
2571,2571,Spring Mountain @ Jones (W),,36.12557,-115.225605,,,,,,0
2572,2572,Spring Mountain @ Las Vegas (W),,36.125696,-115.170513,,,,,,0
2573,2573,Spring Mountain @ Lindell (E),,36.125786,-115.21583,,,,,,0
2574,2574,Spring Mountain @ Lindell (W),,36.12591,-115.217273,,,,,,0
2576,2576,Spring Mountain @ Stober (E),,36.126222,-115.203581,,,,,,0
2577,2577,Spring Mountain @ Polaris (E),,36.126244,-115.185134,,,,,,0
2579,2579,Spring Mountain @ Rainbow (E),,36.125631,-115.242227,,,,,,0
2580,2580,Spring Mountain @ Rainbow (W),,36.125795,-115.244505,,,,,,0
2581,2581,Spring Mountain @ Red Rock (W),,36.125687,-115.221842,,,,,,0
2582,2582,Spring Mountain @ Redwood (E),,36.125573,-115.238029,,,,,,0
2583,2583,Spring Mountain @ Redwood (W),,36.12575,-115.238917,,,,,,0
2585,2585,Spring Mountain @ Myrtle (W),,36.126396,-115.203398,,,,,,0
2586,2586,Spring Mountain @ Torrey Pines (E),,36.125518,-115.233376,,,,,,0
2587,2587,Spring Mountain @ Torrey Pines (W),,36.125689,-115.234786,,,,,,0
2588,2588,Spring Mountain @ Valley View (E),,36.12639,-115.189569,,,,,,0
2590,2590,Spring Mountain @ Valley View (W),,36.126617,-115.191098,,,,,,0
2591,2591,Spring Mountain @ Wynn (E),,36.126351,-115.194209,,,,,,0
2592,2592,Spring Mountain @ Wynn (W),,36.126533,-115.194978,,,,,,0
2594,2594,St Louis @ Fremont (E),,36.149138,-115.103868,,,,,,0
2595,2595,St Louis @ Fremont (W),,36.148161,-115.105581,,,,,,0
2596,2596,St Louis @ Las Vegas (E),,36.148047,-115.153699,,,,,,0
2597,2597,St Louis @ Palm (W),,36.150579,-115.102239,,,,,,0
2598,2598,St Louis @ Palm (E),,36.151,-115.101398,,,,,,0
2601,2601,Stephanie @ Mall Ring (N),,36.069466,-115.045968,,,,,,0
2602,2602,Stephanie @ Power Center (N),,36.060314,-115.046073,,,,,,0
2603,2603,Stephanie @ Power Center (S),,36.059488,-115.046356,,,,,,0
2604,2604,Stephanie @ Sunset (S),,36.064903,-115.046295,,,,,,0
2605,2605,Stephanie @ Sunset (N),,36.065857,-115.046007,,,,,,0
2606,2606,Stephanie @ Sunset (S),,36.063059,-115.04633,,,,,,0
2607,2607,Stephanie @ Valley Wind (N),,36.051486,-115.046274,,,,,,0
2608,2608,Stephanie @ Warm Springs (N),,36.056941,-115.046063,,,,,,0
2609,2609,Stephanie @ Warm Springs (S),,36.055158,-115.04644,,,,,,0
2611,2611,Stewart @ 10th (W),,36.169304,-115.133687,,,,,,0
2612,2612,Stewart @ 13th (E),,36.167422,-115.129664,,,,,,0
2613,2613,Stewart @ 14th (W),,36.167385,-115.1292,,,,,,0
2614,2614,Stewart @ 21st (E),,36.16648,-115.120046,,,,,,0
2615,2615,Stewart @ 21st (W),,36.166585,-115.120956,,,,,,0
2616,2616,Stewart @ 28th (E),,36.166337,-115.110981,,,,,,0
2617,2617,Stewart @ 28th (W),,36.16659,-115.112251,,,,,,0
2620,2620,Stewart @ 7th (E),,36.170477,-115.136792,,,,,,0
2621,2621,Stewart @ 6th (W),,36.171383,-115.138504,,,,,,0
2623,2623,Stewart @ 10th (E),,36.169179,-115.133771,,,,,,0
2624,2624,Stewart @ Pecos (W),,36.166264,-115.095665,,,,,,0
2625,2625,Stewart @ Bruce (E),,36.166442,-115.124133,,,,,,0
2626,2626,Stewart @ Bruce (W),,36.166532,-115.126391,,,,,,0
2627,2627,Stewart @ Century (W),,36.166358,-115.085933,,,,,,0
2628,2628,Stewart @ Christy (W),,36.16699,-115.053638,,,,,,0
2629,2629,Stewart @ Coast (W),,36.166284,-115.093091,,,,,,0
2630,2630,Stewart @ Eastern (E),,36.166402,-115.114564,,,,,,0
2631,2631,Stewart @ Eastern (W),,36.166647,-115.11622,,,,,,0
2633,2633,Stewart @ Greenbrook (E),,36.166361,-115.066458,,,,,,0
2634,2634,Stewart @ Greenbrook (W),,36.166582,-115.067005,,,,,,0
2636,2636,Stewart @ Lamb (E),,36.166195,-115.08002,,,,,,0
2637,2637,Stewart @ Lamb (W),,36.166404,-115.081292,,,,,,0
2639,2639,Stewart @ Marion (E),,36.16631,-115.070593,,,,,,0
2640,2640,Stewart @ Marion (W),,36.16652,-115.071866,,,,,,0
2641,2641,Stewart @ Maryland (W),,36.168367,-115.131491,,,,,,0
2642,2642,Stewart @ Mojave (E),,36.166178,-115.104588,,,,,,0
2643,2643,Stewart @ Mojave (W),,36.166443,-115.106136,,,,,,0
2644,2644,Stewart @ Nellis (E),,36.166441,-115.061552,,,,,,0
2645,2645,Stewart @ Nellis (W),,36.166629,-115.062836,,,,,,0
2646,2646,Stewart @ Page (E),,36.166248,-115.075505,,,,,,0
2647,2647,Stewart @ Page (W),,36.166461,-115.076552,,,,,,0
2648,2648,Stewart @ Pecos (E),,36.166024,-115.097669,,,,,,0
2649,2649,Stewart @ Pecos (W),,36.166257,-115.098787,,,,,,0
2651,2651,Stewart @ Ronald (E),,36.166133,-115.086185,,,,,,0
2652,2652,Stewart @ Sandhill (E),,36.166078,-115.092526,,,,,,0
2653,2653,Stewart @ Sandhill (E),,36.166108,-115.088813,,,,,,0
2654,2654,Stewart @ Sandhill (W),,36.166322,-115.089649,,,,,,0
2658,2658,Sunset @ Annie Oakley (E),,36.070914,-115.086262,,,,,,0
2659,2659,Sunset @ Annie Oakley (W),,36.071196,-115.087975,,,,,,0
2660,2660,Sunset @ Arroyo Grande (W),,36.06389,-115.059978,,,,,,0
2661,2661,Sunset @ Arroyo Grande (E),,36.063588,-115.058098,,,,,,0
2663,2663,Sunset @ Athenian (E),,36.070778,-115.077447,,,,,,0
2664,2664,Sunset @ Athenian (W),,36.071037,-115.078489,,,,,,0
2665,2665,Sunset @ Bermuda (E),,36.071246,-115.153886,,,,,,0
2670,2670,Sunset @ Eastern (E),,36.071459,-115.117697,,,,,,0
2671,2671,Sunset @ Eastern (W),,36.07177,-115.11945,,,,,,0
2673,2673,Sunset @ Eiger (E),,36.063659,-115.06045,,,,,,0
2675,2675,Sunset @ Escondido (E),,36.07163,-115.134218,,,,,,0
2676,2676,Sunset @ Escondido (W),,36.07192,-115.135299,,,,,,0
2677,2677,Sunset @ Marks (W),,36.063875,-115.040937,,,,,,0
2679,2679,Sunset @ Gibson (W),,36.06395,-115.027757,,,,,,0
2680,2680,Sunset @ Green Valley (E),,36.07077,-115.081219,,,,,,0
2681,2681,Sunset @ Green Valley (W),,36.071016,-115.083296,,,,,,0
2682,2682,Sunset @ Grier (E),,36.071398,-115.147669,,,,,,0
2684,2684,Sunset @ Marks (E),,36.063622,-115.035497,,,,,,0
2685,2685,Sunset @ Marks (W),,36.063919,-115.035504,,,,,,0
2686,2686,Sunset @ McLeod (E),,36.07144,-115.1119,,,,,,0
2687,2687,Sunset @ McLeod (W),,36.071678,-115.113472,,,,,,0
2690,2690,Sunset @ Paradise (E),,36.071559,-115.140263,,,,,,0
2694,2694,Sunset @ Pecos (E),,36.071435,-115.099704,,,,,,0
2695,2695,Sunset @ Pecos (W),,36.071703,-115.101771,,,,,,0
2696,2696,Sunset @ Pepper Tree (E),,36.065957,-115.066218,,,,,,0
